[
  {
    "country_code": "LK",
    "province": "Central",
    "province_code": "LK2",
    "district": "Kandy",
    "disid": "LK21",
    "ds_aga": null,
    "ds_code": null,
    "postal_code": 20150,
    "place_name_english": "Ankumbura",
    "sinhala": "අංකුඹුර",
    "tamil": "அங்கும்புரா",
    "latitude": 7.4333,
    "longitude": 80.5667,
    "accuracy": 4.0
  },
  {
    "country_code": "LK",
    "province": "Central",
    "province_code": "LK2",
    "district": "Kandy",
    "disid": "LK21",
    "ds_aga": null,
    "ds_code": null,
    "postal_code": 20850,
    "place_name_english": "Akurana",
    "sinhala": "අකුරණ",
    "tamil": "அகுரானா",
    "latitude": 7.3667,
    "longitude": 80.6167,
    "accuracy": 4.0
  },
  {
    "country_code": "LK",
    "province": "Central",
    "province_code": "LK2",
    "district": "Kandy",
    "disid": "LK21",
    "ds_aga": null,
    "ds_code": null,
    "postal_code": 20574,
    "place_name_english": "Atabage",
    "sinhala": "අටබාගේ",
    "tamil": "அட்டபேஜ்",
    "latitude": 7.1354,
    "longitude": 80.6091,
    "accuracy": 4.0
  },
  {
    "country_code": "LK",
    "province": "Central",
    "province_code": "LK2",
    "district": "Kandy",
    "disid": "LK21",
    "ds_aga": null,
    "ds_code": null,
    "postal_code": 20160,
    "place_name_english": "Ampitiya",
    "sinhala": "අම්පිටිය",
    "tamil": "ஆம்பிட்டி",
    "latitude": 7.2715,
    "longitude": 80.656,
    "accuracy": 4.0
  },
  {
    "country_code": "LK",
    "province": "Central",
    "province_code": "LK2",
    "district": "Kandy",
    "disid": "LK21",
    "ds_aga": null,
    "ds_code": null,
    "postal_code": 20986,
    "place_name_english": "Ambagahapelessa",
    "sinhala": "අඹගහපැලැස්ස",
    "tamil": "அம்பகஹபெலெசா",
    "latitude": 7.2197,
    "longitude": 80.9958,
    "accuracy": 4.0
  },
  {
    "country_code": "LK",
    "province": "Central",
    "province_code": "LK2",
    "district": "Kandy",
    "disid": "LK21",
    "ds_aga": null,
    "ds_code": null,
    "postal_code": 20136,
    "place_name_english": "Ambatenna",
    "sinhala": "අඹතැන්න",
    "tamil": "அம்படென்னா",
    "latitude": 7.3501,
    "longitude": 80.6211,
    "accuracy": 4.0
  },
  {
    "country_code": "LK",
    "province": "Central",
    "province_code": "LK2",
    "district": "Kandy",
    "disid": "LK21",
    "ds_aga": null,
    "ds_code": null,
    "postal_code": 20140,
    "place_name_english": "Alawatugoda",
    "sinhala": "අලවතුගොඩ",
    "tamil": "அலவதகுட",
    "latitude": 7.4042,
    "longitude": 80.6087,
    "accuracy": 4.0
  },
  {
    "country_code": "LK",
    "province": "Central",
    "province_code": "LK2",
    "district": "Kandy",
    "disid": "LK21",
    "ds_aga": null,
    "ds_code": null,
    "postal_code": 20062,
    "place_name_english": "Aludeniya",
    "sinhala": "අලුදෙනිය ",
    "tamil": "அலுதேனியா",
    "latitude": 7.3686,
    "longitude": 80.4672,
    "accuracy": 4.0
  },
  {
    "country_code": "LK",
    "province": "Central",
    "province_code": "LK2",
    "district": "Kandy",
    "disid": "LK21",
    "ds_aga": null,
    "ds_code": null,
    "postal_code": 20732,
    "place_name_english": "Ekiriya",
    "sinhala": "ඇකිරිය",
    "tamil": "எகிரியா",
    "latitude": 7.1474,
    "longitude": 80.7562,
    "accuracy": 4.0
  },
  {
    "country_code": "LK",
    "province": "Central",
    "province_code": "LK2",
    "district": "Kandy",
    "disid": "LK21",
    "ds_aga": null,
    "ds_code": null,
    "postal_code": 20202,
    "place_name_english": "Etulgama",
    "sinhala": "ඇතුල්ගම",
    "tamil": "எத்துல்கம",
    "latitude": 7.2425,
    "longitude": 80.6687,
    "accuracy": 4.0
  },
  {
    "country_code": "LK",
    "province": "Central",
    "province_code": "LK2",
    "district": "Kandy",
    "disid": "LK21",
    "ds_aga": null,
    "ds_code": null,
    "postal_code": 20724,
    "place_name_english": "lllagolla",
    "sinhala": "ඉල්ලගොල්ල",
    "tamil": "lllagolla",
    "latitude": 7.1727,
    "longitude": 80.8149,
    "accuracy": 1.0
  },
  {
    "country_code": "LK",
    "province": "Central",
    "province_code": "LK2",
    "district": "Kandy",
    "disid": "LK21",
    "ds_aga": null,
    "ds_code": null,
    "postal_code": 20042,
    "place_name_english": "lhala Kobbekaduwa",
    "sinhala": "ඉහළ කොබ්බෑකඩුව",
    "tamil": "lhala Kobbekaduwa",
    "latitude": 7.3154,
    "longitude": 80.5887,
    "accuracy": 1.0
  },
  {
    "country_code": "LK",
    "province": "Central",
    "province_code": "LK2",
    "district": "Kandy",
    "disid": "LK21",
    "ds_aga": null,
    "ds_code": null,
    "postal_code": 20404,
    "place_name_english": "Uda Peradeniya",
    "sinhala": "උඩ පේරාදෙණිය",
    "tamil": "உத பெரதேனியா",
    "latitude": 7.2622,
    "longitude": 80.5841,
    "accuracy": 1.0
  },
  {
    "country_code": "LK",
    "province": "Central",
    "province_code": "LK2",
    "district": "Kandy",
    "disid": "LK21",
    "ds_aga": null,
    "ds_code": null,
    "postal_code": 20802,
    "place_name_english": "Udatalawinna",
    "sinhala": "උඩතලවින්න",
    "tamil": "உதடலவின்ண்ணா",
    "latitude": 7.343,
    "longitude": 80.6463,
    "accuracy": 4.0
  },
  {
    "country_code": "LK",
    "province": "Central",
    "province_code": "LK2",
    "district": "Kandy",
    "disid": "LK21",
    "ds_aga": null,
    "ds_code": null,
    "postal_code": 20722,
    "place_name_english": "Udawatta",
    "sinhala": "උඩවත්ත",
    "tamil": "உடவத்தா",
    "latitude": 7.1727,
    "longitude": 80.8149,
    "accuracy": 4.0
  },
  {
    "country_code": "LK",
    "province": "Central",
    "province_code": "LK2",
    "district": "Kandy",
    "disid": "LK21",
    "ds_aga": null,
    "ds_code": null,
    "postal_code": 20094,
    "place_name_english": "Udahingulwala",
    "sinhala": "උඩහිඟුල්වල",
    "tamil": "உதஹிங்குல்வாலா",
    "latitude": 7.4012,
    "longitude": 80.5289,
    "accuracy": 1.0
  },
  {
    "country_code": "LK",
    "province": "Central",
    "province_code": "LK2",
    "district": "Kandy",
    "disid": "LK21",
    "ds_aga": null,
    "ds_code": null,
    "postal_code": 20506,
    "place_name_english": "Udahentenna",
    "sinhala": "උඩහේන්තැන්න",
    "tamil": "உதஹென்டென்னா",
    "latitude": 7.0969,
    "longitude": 80.5128,
    "accuracy": 4.0
  },
  {
    "country_code": "LK",
    "province": "Central",
    "province_code": "LK2",
    "district": "Kandy",
    "disid": "LK21",
    "ds_aga": null,
    "ds_code": null,
    "postal_code": 20916,
    "place_name_english": "Udispattuwa",
    "sinhala": "උඩිස්පත්තුව",
    "tamil": "உடிஸ்பட்டுவா",
    "latitude": 7.3076,
    "longitude": 80.887,
    "accuracy": 1.0
  },
  {
    "country_code": "LK",
    "province": "Central",
    "province_code": "LK2",
    "district": "Kandy",
    "disid": "LK21",
    "ds_aga": null,
    "ds_code": null,
    "postal_code": 20950,
    "place_name_english": "Ududumbara",
    "sinhala": "උඩුදුම්බර",
    "tamil": "உடுதும்பரா",
    "latitude": 7.3076,
    "longitude": 80.887,
    "accuracy": 1.0
  },
  {
    "country_code": "LK",
    "province": "Central",
    "province_code": "LK2",
    "district": "Kandy",
    "disid": "LK21",
    "ds_aga": null,
    "ds_code": null,
    "postal_code": 20052,
    "place_name_english": "Uduwa",
    "sinhala": "උඩුව",
    "tamil": "உடுவ",
    "latitude": 7.3637,
    "longitude": 80.4845,
    "accuracy": 4.0
  },
  {
    "country_code": "LK",
    "province": "Central",
    "province_code": "LK2",
    "district": "Kandy",
    "disid": "LK21",
    "ds_aga": null,
    "ds_code": null,
    "postal_code": 20934,
    "place_name_english": "Uduwahinna",
    "sinhala": "උඩුවහින්න",
    "tamil": "உடுவாஹின்னா",
    "latitude": 7.2833,
    "longitude": 80.8917,
    "accuracy": 1.0
  },
  {
    "country_code": "LK",
    "province": "Central",
    "province_code": "LK2",
    "district": "Kandy",
    "disid": "LK21",
    "ds_aga": null,
    "ds_code": null,
    "postal_code": 20164,
    "place_name_english": "Uduwela",
    "sinhala": "උඩුවෙල",
    "tamil": "உடுவேலா",
    "latitude": 7.2754,
    "longitude": 80.6697,
    "accuracy": 1.0
  },
  {
    "country_code": "LK",
    "province": "Central",
    "province_code": "LK2",
    "district": "Kandy",
    "disid": "LK21",
    "ds_aga": null,
    "ds_code": null,
    "postal_code": 20708,
    "place_name_english": "Unuwinna",
    "sinhala": "උනුවින්න",
    "tamil": "உனுவின்ன",
    "latitude": 7.1998,
    "longitude": 80.7552,
    "accuracy": 4.0
  },
  {
    "country_code": "LK",
    "province": "Central",
    "province_code": "LK2",
    "district": "Kandy",
    "disid": "LK21",
    "ds_aga": "පස්බාගේ කෝරළේ",
    "ds_code": null,
    "postal_code": 20562,
    "place_name_english": "Ulapane",
    "sinhala": "උලපනේ",
    "tamil": "உலபனே",
    "latitude": 7.1031,
    "longitude": 80.5572,
    "accuracy": 4.0
  },
  {
    "country_code": "LK",
    "province": "Central",
    "province_code": "LK2",
    "district": "Kandy",
    "disid": "LK21",
    "ds_aga": null,
    "ds_code": null,
    "postal_code": 20965,
    "place_name_english": "Ulpothagama",
    "sinhala": "උල්පතගම",
    "tamil": "உல்போதகம",
    "latitude": 7.1592,
    "longitude": 80.9898,
    "accuracy": 4.0
  },
  {
    "country_code": "LK",
    "province": "Central",
    "province_code": "LK2",
    "district": "Kandy",
    "disid": "LK21",
    "ds_aga": null,
    "ds_code": null,
    "postal_code": 20742,
    "place_name_english": "Elamulla",
    "sinhala": "එලමුල්ල",
    "tamil": "எலமுல்லா",
    "latitude": 7.0542,
    "longitude": 80.7792,
    "accuracy": 4.0
  },
  {
    "country_code": "LK",
    "province": "Central",
    "province_code": "LK2",
    "district": "Kandy",
    "disid": "LK21",
    "ds_aga": null,
    "ds_code": null,
    "postal_code": 20800,
    "place_name_english": "Katugastota",
    "sinhala": "කටුගස්තොට",
    "tamil": "கட்டுகஸ்டோட்டா",
    "latitude": 7.3276,
    "longitude": 80.6212,
    "accuracy": 4.0
  },
  {
    "country_code": "LK",
    "province": "Central",
    "province_code": "LK2",
    "district": "Kandy",
    "disid": "LK21",
    "ds_aga": null,
    "ds_code": null,
    "postal_code": 20300,
    "place_name_english": "Kadugannawa",
    "sinhala": "කඩුගන්නාව",
    "tamil": "கடுகண்ணவா",
    "latitude": 7.2547,
    "longitude": 80.5242,
    "accuracy": 4.0
  },
  {
    "country_code": "LK",
    "province": "Central",
    "province_code": "LK2",
    "district": "Kandy",
    "disid": "LK21",
    "ds_aga": null,
    "ds_code": null,
    "postal_code": 20206,
    "place_name_english": "Kapuliyadde",
    "sinhala": "කපුලියැද්ද",
    "tamil": "கபுலியாடே",
    "latitude": 7.2408,
    "longitude": 80.6825,
    "accuracy": 1.0
  },
  {
    "country_code": "LK",
    "province": "Central",
    "province_code": "LK2",
    "district": "Kandy",
    "disid": "LK21",
    "ds_aga": null,
    "ds_code": null,
    "postal_code": 20738,
    "place_name_english": "Karandagolla",
    "sinhala": "කරඳගොල්ල ",
    "tamil": "கரண்டகொல்லா",
    "latitude": 7.1293,
    "longitude": 80.798,
    "accuracy": 4.0
  },
  {
    "country_code": "LK",
    "province": "Central",
    "province_code": "LK2",
    "district": "Kandy",
    "disid": "LK21",
    "ds_aga": null,
    "ds_code": null,
    "postal_code": 20924,
    "place_name_english": "Kahataliyadda",
    "sinhala": "කහටලියද්ද ",
    "tamil": "கஹதலியதா",
    "latitude": 7.376,
    "longitude": 80.8213,
    "accuracy": 1.0
  },
  {
    "country_code": "LK",
    "province": "Central",
    "province_code": "LK2",
    "district": "Kandy",
    "disid": "LK21",
    "ds_aga": null,
    "ds_code": null,
    "postal_code": 20926,
    "place_name_english": "Kalugala",
    "sinhala": "කළුගල",
    "tamil": "குகல",
    "latitude": 7.3833,
    "longitude": 80.8833,
    "accuracy": 4.0
  },
  {
    "country_code": "LK",
    "province": "Central",
    "province_code": "LK2",
    "district": "Kandy",
    "disid": "LK21",
    "ds_aga": null,
    "ds_code": null,
    "postal_code": 20306,
    "place_name_english": "Ketakumbura",
    "sinhala": "කැටකුඹුර",
    "tamil": "கேதகம்புரா",
    "latitude": 7.2103,
    "longitude": 80.5795,
    "accuracy": 4.0
  },
  {
    "country_code": "LK",
    "province": "Central",
    "province_code": "LK2",
    "district": "Kandy",
    "disid": "LK21",
    "ds_aga": null,
    "ds_code": null,
    "postal_code": 20198,
    "place_name_english": "Ketawala Leula",
    "sinhala": "කැටවල ලෙවුල",
    "tamil": "கேதவாலா லியுலா",
    "latitude": 7.3022,
    "longitude": 80.6762,
    "accuracy": 1.0
  },
  {
    "country_code": "LK",
    "province": "Central",
    "province_code": "LK2",
    "district": "Kandy",
    "disid": "LK21",
    "ds_aga": null,
    "ds_code": null,
    "postal_code": 20442,
    "place_name_english": "Kiribathkumbura",
    "sinhala": "කිරිබත්කුඹුර",
    "tamil": "கிரிபத்கும்புரா",
    "latitude": 7.107,
    "longitude": 80.7648,
    "accuracy": 1.0
  },
  {
    "country_code": "LK",
    "province": "Central",
    "province_code": "LK2",
    "district": "Kandy",
    "disid": "LK21",
    "ds_aga": null,
    "ds_code": null,
    "postal_code": 20168,
    "place_name_english": "Kundasale",
    "sinhala": "කුණ්ඩසාලේ",
    "tamil": "குண்டசலே",
    "latitude": 7.2737,
    "longitude": 80.7001,
    "accuracy": 4.0
  },
  {
    "country_code": "LK",
    "province": "Central",
    "province_code": "LK2",
    "district": "Kandy",
    "disid": "LK21",
    "ds_aga": null,
    "ds_code": null,
    "postal_code": 20902,
    "place_name_english": "Kumbukkandura",
    "sinhala": "කුඹුක්කඳුර",
    "tamil": "கும்புகண்டுரா",
    "latitude": 7.3147,
    "longitude": 80.7616,
    "accuracy": 1.0
  },
  {
    "country_code": "LK",
    "province": "Central",
    "province_code": "LK2",
    "district": "Kandy",
    "disid": "LK21",
    "ds_aga": null,
    "ds_code": null,
    "postal_code": 20086,
    "place_name_english": "Kumburegama",
    "sinhala": "කුඹුරේගම",
    "tamil": "கும்புரேகம",
    "latitude": 7.358,
    "longitude": 80.5493,
    "accuracy": 4.0
  },
  {
    "country_code": "LK",
    "province": "Central",
    "province_code": "LK2",
    "district": "Kandy",
    "disid": "LK21",
    "ds_aga": null,
    "ds_code": null,
    "postal_code": 20048,
    "place_name_english": "Kulugammana",
    "sinhala": "කුළුගම්මන",
    "tamil": "குலுகம்மனா",
    "latitude": 7.3154,
    "longitude": 80.5887,
    "accuracy": 4.0
  },
  {
    "country_code": "LK",
    "province": "Central",
    "province_code": "LK2",
    "district": "Kandy",
    "disid": "LK21",
    "ds_aga": null,
    "ds_code": null,
    "postal_code": 20928,
    "place_name_english": "Kobonila",
    "sinhala": "කොබොනිල",
    "tamil": "கோபோனிலா",
    "latitude": 7.376,
    "longitude": 80.8213,
    "accuracy": 1.0
  },
  {
    "country_code": "LK",
    "province": "Central",
    "province_code": "LK2",
    "district": "Kandy",
    "disid": "LK21",
    "ds_aga": null,
    "ds_code": null,
    "postal_code": 20212,
    "place_name_english": "Kolabissa",
    "sinhala": "කොලබිස්ස",
    "tamil": "கோலாபிசா",
    "latitude": 7.2278,
    "longitude": 80.7174,
    "accuracy": 1.0
  },
  {
    "country_code": "LK",
    "province": "Central",
    "province_code": "LK2",
    "district": "Kandy",
    "disid": "LK21",
    "ds_aga": null,
    "ds_code": null,
    "postal_code": 20971,
    "place_name_english": "Kolongoda",
    "sinhala": "කොලොන්ගෝඩ",
    "tamil": "கோலோங்கோடா",
    "latitude": 7.3076,
    "longitude": 80.887,
    "accuracy": 1.0
  },
  {
    "country_code": "LK",
    "province": "Central",
    "province_code": "LK2",
    "district": "Kandy",
    "disid": "LK21",
    "ds_aga": null,
    "ds_code": null,
    "postal_code": 20500,
    "place_name_english": "Gampola",
    "sinhala": "ගම්පොල",
    "tamil": "கம்போலா",
    "latitude": 7.1643,
    "longitude": 80.5696,
    "accuracy": 4.0
  },
  {
    "country_code": "LK",
    "province": "Central",
    "province_code": "LK2",
    "district": "Kandy",
    "disid": "LK21",
    "ds_aga": null,
    "ds_code": null,
    "postal_code": 20100,
    "place_name_english": "Galagedara",
    "sinhala": "ගලගෙදර",
    "tamil": "கலகெதரா",
    "latitude": 7.373,
    "longitude": 80.5206,
    "accuracy": 4.0
  },
  {
    "country_code": "LK",
    "province": "Central",
    "province_code": "LK2",
    "district": "Kandy",
    "disid": "LK21",
    "ds_aga": null,
    "ds_code": null,
    "postal_code": 20664,
    "place_name_english": "Galaboda",
    "sinhala": "ගලබොඩ",
    "tamil": "கலாபோடா",
    "latitude": 6.9864,
    "longitude": 80.5295,
    "accuracy": 4.0
  },
  {
    "country_code": "LK",
    "province": "Central",
    "province_code": "LK2",
    "district": "Kandy",
    "disid": "LK21",
    "ds_aga": null,
    "ds_code": null,
    "postal_code": 20420,
    "place_name_english": "Galaha",
    "sinhala": "ගලහ",
    "tamil": "கலாஹா",
    "latitude": 7.1979,
    "longitude": 80.6645,
    "accuracy": 4.0
  },
  {
    "country_code": "LK",
    "province": "Central",
    "province_code": "LK2",
    "district": "Kandy",
    "disid": "LK21",
    "ds_aga": null,
    "ds_code": null,
    "postal_code": 20095,
    "place_name_english": "Gallellagama",
    "sinhala": "ගල්ලෑල්ලගම",
    "tamil": "கல்லெல்லகம",
    "latitude": 7.4012,
    "longitude": 80.5289,
    "accuracy": 1.0
  },
  {
    "country_code": "LK",
    "province": "Central",
    "province_code": "LK2",
    "district": "Kandy",
    "disid": "LK21",
    "ds_aga": null,
    "ds_code": null,
    "postal_code": 20152,
    "place_name_english": "Galhinna",
    "sinhala": "ගල්හින්න",
    "tamil": "கால்ஹின்னா",
    "latitude": 7.4162,
    "longitude": 80.5639,
    "accuracy": 4.0
  },
  {
    "country_code": "LK",
    "province": "Central",
    "province_code": "LK2",
    "district": "Kandy",
    "disid": "LK21",
    "ds_aga": null,
    "ds_code": null,
    "postal_code": 20270,
    "place_name_english": "Gunnepana",
    "sinhala": "ගුනෑපාන",
    "tamil": "குன்னேபனா",
    "latitude": 7.2574,
    "longitude": 80.6715,
    "accuracy": 1.0
  },
  {
    "country_code": "LK",
    "province": "Central",
    "province_code": "LK2",
    "district": "Kandy",
    "disid": "LK21",
    "ds_aga": null,
    "ds_code": null,
    "postal_code": 20189,
    "place_name_english": "Gurudeniya",
    "sinhala": "ගුරුදෙනිය",
    "tamil": "குருதேனியா",
    "latitude": 7.2642,
    "longitude": 80.6859,
    "accuracy": 4.0
  },
  {
    "country_code": "LK",
    "province": "Central",
    "province_code": "LK2",
    "district": "Kandy",
    "disid": "LK21",
    "ds_aga": null,
    "ds_code": null,
    "postal_code": 20620,
    "place_name_english": "Gelioya",
    "sinhala": "ගෙලිඔය",
    "tamil": "கெலியோயா",
    "latitude": 7.2157,
    "longitude": 80.5967,
    "accuracy": 4.0
  },
  {
    "country_code": "LK",
    "province": "Central",
    "province_code": "LK2",
    "district": "Kandy",
    "disid": "LK21",
    "ds_aga": null,
    "ds_code": null,
    "postal_code": 20214,
    "place_name_english": "Godamunna",
    "sinhala": "ගොඩමුන්න",
    "tamil": "கோதமுன்னா",
    "latitude": 7.2305,
    "longitude": 80.6995,
    "accuracy": 4.0
  },
  {
    "country_code": "LK",
    "province": "Central",
    "province_code": "LK2",
    "district": "Kandy",
    "disid": "LK21",
    "ds_aga": null,
    "ds_code": null,
    "postal_code": 20712,
    "place_name_english": "Gonagantenna",
    "sinhala": "ගෝනගන්තැන්න",
    "tamil": "கோனகண்டென்னா",
    "latitude": 7.1252,
    "longitude": 80.7879,
    "accuracy": 1.0
  },
  {
    "country_code": "LK",
    "province": "Central",
    "province_code": "LK2",
    "district": "Kandy",
    "disid": "LK21",
    "ds_aga": null,
    "ds_code": null,
    "postal_code": 20184,
    "place_name_english": "Gomagoda",
    "sinhala": "ගොමගොඩ",
    "tamil": "கோமகோடா",
    "latitude": 7.3245,
    "longitude": 80.7313,
    "accuracy": 4.0
  },
  {
    "country_code": "LK",
    "province": "Central",
    "province_code": "LK2",
    "district": "Kandy",
    "disid": "LK21",
    "ds_aga": null,
    "ds_code": null,
    "postal_code": 20656,
    "place_name_english": "Gonawalapatana",
    "sinhala": "ගෝනවලපතාන",
    "tamil": "கோனவலபதான",
    "latitude": 7.035,
    "longitude": 80.5244,
    "accuracy": 1.0
  },
  {
    "country_code": "LK",
    "province": "Central",
    "province_code": "LK2",
    "district": "Kandy",
    "disid": "LK21",
    "ds_aga": null,
    "ds_code": null,
    "postal_code": 20822,
    "place_name_english": "Jambugahapitiya",
    "sinhala": "ජම්බුගහපිටිය",
    "tamil": "ஜம்புகஹபிட்டி",
    "latitude": 7.3792,
    "longitude": 80.6429,
    "accuracy": 1.0
  },
  {
    "country_code": "LK",
    "province": "Central",
    "province_code": "LK2",
    "district": "Kandy",
    "disid": "LK21",
    "ds_aga": null,
    "ds_code": null,
    "postal_code": 20658,
    "place_name_english": "Dekinda",
    "sinhala": "දෙකින්ද",
    "tamil": "டெகிந்தா",
    "latitude": 7.0167,
    "longitude": 80.5167,
    "accuracy": 4.0
  },
  {
    "country_code": "LK",
    "province": "Central",
    "province_code": "LK2",
    "district": "Kandy",
    "disid": "LK21",
    "ds_aga": null,
    "ds_code": null,
    "postal_code": 20200,
    "place_name_english": "Talatuoya",
    "sinhala": "තලටුඔය",
    "tamil": "தலட்டுயோயா",
    "latitude": 7.2507,
    "longitude": 80.6899,
    "accuracy": 4.0
  },
  {
    "country_code": "LK",
    "province": "Central",
    "province_code": "LK2",
    "district": "Kandy",
    "disid": "LK21",
    "ds_aga": null,
    "ds_code": null,
    "postal_code": 20838,
    "place_name_english": "Tawalantenna",
    "sinhala": "තවලන්තැන්න",
    "tamil": "தவலந்தென்னா",
    "latitude": 7.0665,
    "longitude": 80.6919,
    "accuracy": 4.0
  },
  {
    "country_code": "LK",
    "province": "Central",
    "province_code": "LK2",
    "district": "Kandy",
    "disid": "LK21",
    "ds_aga": null,
    "ds_code": null,
    "postal_code": 20166,
    "place_name_english": "Tennekumbura",
    "sinhala": "තැන්නෙකුඹුර",
    "tamil": "தென்னகும்புரா",
    "latitude": 7.2809,
    "longitude": 80.6531,
    "accuracy": 4.0
  },
  {
    "country_code": "LK",
    "province": "Central",
    "province_code": "LK2",
    "district": "Kandy",
    "disid": "LK21",
    "ds_aga": null,
    "ds_code": null,
    "postal_code": 20900,
    "place_name_english": "Teldeniya",
    "sinhala": "තෙල්දෙණිය",
    "tamil": "டெல்டெனியா",
    "latitude": 7.2969,
    "longitude": 80.7686,
    "accuracy": 4.0
  },
  {
    "country_code": "LK",
    "province": "Central",
    "province_code": "LK2",
    "district": "Kandy",
    "disid": "LK21",
    "ds_aga": null,
    "ds_code": null,
    "postal_code": 20465,
    "place_name_english": "Danture",
    "sinhala": "දන්තුරේ",
    "tamil": "டான்டூர்",
    "latitude": 7.2825,
    "longitude": 80.5352,
    "accuracy": 4.0
  },
  {
    "country_code": "LK",
    "province": "Central",
    "province_code": "LK2",
    "district": "Kandy",
    "disid": "LK21",
    "ds_aga": null,
    "ds_code": null,
    "postal_code": 20824,
    "place_name_english": "Dunuwila",
    "sinhala": "දුනුවිල",
    "tamil": "துனுவிலா",
    "latitude": 7.3792,
    "longitude": 80.6429,
    "accuracy": 4.0
  },
  {
    "country_code": "LK",
    "province": "Central",
    "province_code": "LK2",
    "district": "Kandy",
    "disid": "LK21",
    "ds_aga": null,
    "ds_code": null,
    "postal_code": 20430,
    "place_name_english": "Deltota",
    "sinhala": "දෙල්තොට",
    "tamil": "டெல்டோட்டா",
    "latitude": 7.1944,
    "longitude": 80.6917,
    "accuracy": 4.0
  },
  {
    "country_code": "LK",
    "province": "Central",
    "province_code": "LK2",
    "district": "Kandy",
    "disid": "LK21",
    "ds_aga": null,
    "ds_code": null,
    "postal_code": 20068,
    "place_name_english": "Dedunupitiya",
    "sinhala": "දේදුනුපිටිය",
    "tamil": "தேதுனூபிட்டி",
    "latitude": 7.3353,
    "longitude": 80.4313,
    "accuracy": 4.0
  },
  {
    "country_code": "LK",
    "province": "Central",
    "province_code": "LK2",
    "district": "Kandy",
    "disid": "LK21",
    "ds_aga": null,
    "ds_code": null,
    "postal_code": 20816,
    "place_name_english": "Doragamuwa",
    "sinhala": "දොරගමුව",
    "tamil": "டோரகமுவ",
    "latitude": 7.3638,
    "longitude": 80.6557,
    "accuracy": 4.0
  },
  {
    "country_code": "LK",
    "province": "Central",
    "province_code": "LK2",
    "district": "Kandy",
    "disid": "LK21",
    "ds_aga": null,
    "ds_code": null,
    "postal_code": 20126,
    "place_name_english": "Dolapihilla",
    "sinhala": "දොළපිහිල්ල",
    "tamil": "டோலாபிஹில்லா",
    "latitude": 7.3899,
    "longitude": 80.5794,
    "accuracy": 4.0
  },
  {
    "country_code": "LK",
    "province": "Central",
    "province_code": "LK2",
    "district": "Kandy",
    "disid": "LK21",
    "ds_aga": null,
    "ds_code": null,
    "postal_code": 20532,
    "place_name_english": "Doluwa",
    "sinhala": "දොළුව",
    "tamil": "டோலுவா",
    "latitude": 7.1794,
    "longitude": 80.598,
    "accuracy": 4.0
  },
  {
    "country_code": "LK",
    "province": "Central",
    "province_code": "LK2",
    "district": "Kandy",
    "disid": "LK21",
    "ds_aga": null,
    "ds_code": null,
    "postal_code": 20510,
    "place_name_english": "Dolosbage",
    "sinhala": "දොළොස්බාගේ",
    "tamil": "டோலோஸ்பேஜ்",
    "latitude": 7.0808,
    "longitude": 80.4693,
    "accuracy": 4.0
  },
  {
    "country_code": "LK",
    "province": "Central",
    "province_code": "LK2",
    "district": "Kandy",
    "disid": "LK21",
    "ds_aga": null,
    "ds_code": null,
    "postal_code": 20194,
    "place_name_english": "Nattarampotha",
    "sinhala": "නත්තරම්පොත",
    "tamil": "நட்டரம்போதா",
    "latitude": 7.3022,
    "longitude": 80.6762,
    "accuracy": 1.0
  },
  {
    "country_code": "LK",
    "province": "Central",
    "province_code": "LK2",
    "district": "Kandy",
    "disid": "LK21",
    "ds_aga": null,
    "ds_code": null,
    "postal_code": 20176,
    "place_name_english": "Naranpanawa",
    "sinhala": "නාරන්පනාව",
    "tamil": "நாரன்பனாவா",
    "latitude": 7.3481,
    "longitude": 80.7259,
    "accuracy": 4.0
  },
  {
    "country_code": "LK",
    "province": "Central",
    "province_code": "LK2",
    "district": "Kandy",
    "disid": "LK21",
    "ds_aga": null,
    "ds_code": null,
    "postal_code": 20650,
    "place_name_english": "Nawalapitiya",
    "sinhala": "නාවලපිටිය",
    "tamil": "நவலபிட்டி",
    "latitude": 7.0534,
    "longitude": 80.5321,
    "accuracy": 4.0
  },
  {
    "country_code": "LK",
    "province": "Central",
    "province_code": "LK2",
    "district": "Kandy",
    "disid": "LK21",
    "ds_aga": null,
    "ds_code": null,
    "postal_code": 20418,
    "place_name_english": "Nillambe",
    "sinhala": "නිල්ලම්ඹෙ",
    "tamil": "நில்லம்பே",
    "latitude": 7.1513,
    "longitude": 80.6419,
    "accuracy": 4.0
  },
  {
    "country_code": "LK",
    "province": "Central",
    "province_code": "LK2",
    "district": "Kandy",
    "disid": "LK21",
    "ds_aga": null,
    "ds_code": null,
    "postal_code": 20204,
    "place_name_english": "Nugaliyadda",
    "sinhala": "නුගලියද්ද",
    "tamil": "நுகாலியடா",
    "latitude": 7.2291,
    "longitude": 80.6889,
    "accuracy": 4.0
  },
  {
    "country_code": "LK",
    "province": "Central",
    "province_code": "LK2",
    "district": "Kandy",
    "disid": "LK21",
    "ds_aga": null,
    "ds_code": null,
    "postal_code": 20072,
    "place_name_english": "Nugawela",
    "sinhala": "නුගවෙල",
    "tamil": "நுகாவேலா",
    "latitude": 7.3333,
    "longitude": 80.6,
    "accuracy": 4.0
  },
  {
    "country_code": "LK",
    "province": "Central",
    "province_code": "LK2",
    "district": "Kandy",
    "disid": "LK21",
    "ds_aga": null,
    "ds_code": null,
    "postal_code": 20511,
    "place_name_english": "Pattitalawa",
    "sinhala": "පට්ටිතලාව",
    "tamil": "பட்டிதலவா",
    "latitude": 7.1145,
    "longitude": 80.4699,
    "accuracy": 4.0
  },
  {
    "country_code": "LK",
    "province": "Central",
    "province_code": "LK2",
    "district": "Kandy",
    "disid": "LK21",
    "ds_aga": null,
    "ds_code": null,
    "postal_code": 20118,
    "place_name_english": "Pattiya Watta",
    "sinhala": "පට්ටිය වත්ත",
    "tamil": "பட்டியா வட்டா",
    "latitude": 7.3742,
    "longitude": 80.586,
    "accuracy": 1.0
  },
  {
    "country_code": "LK",
    "province": "Central",
    "province_code": "LK2",
    "district": "Kandy",
    "disid": "LK21",
    "ds_aga": null,
    "ds_code": null,
    "postal_code": 20830,
    "place_name_english": "Panvila",
    "sinhala": "පන්විල",
    "tamil": "பன்வில",
    "latitude": 7.0665,
    "longitude": 80.6919,
    "accuracy": 1.0
  },
  {
    "country_code": "LK",
    "province": "Central",
    "province_code": "LK2",
    "district": "Kandy",
    "disid": "LK21",
    "ds_aga": null,
    "ds_code": null,
    "postal_code": 20544,
    "place_name_english": "Panwilatenna",
    "sinhala": "පන්විලතැන්න",
    "tamil": "பன்விலடென்னா",
    "latitude": 7.1574,
    "longitude": 80.6373,
    "accuracy": 4.0
  },
  {
    "country_code": "LK",
    "province": "Central",
    "province_code": "LK2",
    "district": "Kandy",
    "disid": "LK21",
    "ds_aga": null,
    "ds_code": null,
    "postal_code": 20578,
    "place_name_english": "Paradeka",
    "sinhala": "පරදෙක",
    "tamil": "பரதேகா",
    "latitude": 7.1123,
    "longitude": 80.607,
    "accuracy": 4.0
  },
  {
    "country_code": "LK",
    "province": "Central",
    "province_code": "LK2",
    "district": "Kandy",
    "disid": "LK21",
    "ds_aga": null,
    "ds_code": null,
    "postal_code": 20084,
    "place_name_english": "Pallekotuwa",
    "sinhala": "පල්ලෙකොටුව",
    "tamil": "பல்லேகோடுவா",
    "latitude": 7.3373,
    "longitude": 80.5663,
    "accuracy": 1.0
  },
  {
    "country_code": "LK",
    "province": "Central",
    "province_code": "LK2",
    "district": "Kandy",
    "disid": "LK21",
    "ds_aga": null,
    "ds_code": null,
    "postal_code": 20734,
    "place_name_english": "Pallebowala",
    "sinhala": "පල්ලෙබෝවල",
    "tamil": "பல்லேபோவாலா",
    "latitude": 7.1402,
    "longitude": 80.7792,
    "accuracy": 1.0
  },
  {
    "country_code": "LK",
    "province": "Central",
    "province_code": "LK2",
    "district": "Kandy",
    "disid": "LK21",
    "ds_aga": null,
    "ds_code": null,
    "postal_code": 20654,
    "place_name_english": "Pasbage",
    "sinhala": "පස්බාගේ",
    "tamil": "பாஸ்பேஜ்",
    "latitude": 7.035,
    "longitude": 80.5244,
    "accuracy": 1.0
  },
  {
    "country_code": "LK",
    "province": "Central",
    "province_code": "LK2",
    "district": "Kandy",
    "disid": "LK21",
    "ds_aga": null,
    "ds_code": null,
    "postal_code": 20196,
    "place_name_english": "Pilawala",
    "sinhala": "පිලවැල",
    "tamil": "பிலவாலா",
    "latitude": 7.3022,
    "longitude": 80.6762,
    "accuracy": 4.0
  },
  {
    "country_code": "LK",
    "province": "Central",
    "province_code": "LK2",
    "district": "Kandy",
    "disid": "LK21",
    "ds_aga": null,
    "ds_code": null,
    "postal_code": 20450,
    "place_name_english": "Pilimatalawa",
    "sinhala": "පිළිමතලාව",
    "tamil": "பிலிமதலவா",
    "latitude": 7.2689,
    "longitude": 80.5441,
    "accuracy": 4.0
  },
  {
    "country_code": "LK",
    "province": "Central",
    "province_code": "LK2",
    "district": "Kandy",
    "disid": "LK21",
    "ds_aga": null,
    "ds_code": null,
    "postal_code": 20906,
    "place_name_english": "Putuhapuwa",
    "sinhala": "පුටුහපුව",
    "tamil": "புட்டுஹாபுவ",
    "latitude": 7.3325,
    "longitude": 80.7545,
    "accuracy": 4.0
  },
  {
    "country_code": "LK",
    "province": "Central",
    "province_code": "LK2",
    "district": "Kandy",
    "disid": "LK21",
    "ds_aga": null,
    "ds_code": null,
    "postal_code": 20546,
    "place_name_english": "Pupuressa",
    "sinhala": "පුපුරැස්ස",
    "tamil": "புப்புரேசா",
    "latitude": 7.1262,
    "longitude": 80.6692,
    "accuracy": 4.0
  },
  {
    "country_code": "LK",
    "province": "Central",
    "province_code": "LK2",
    "district": "Kandy",
    "disid": "LK21",
    "ds_aga": null,
    "ds_code": null,
    "postal_code": 20580,
    "place_name_english": "Pussellawa",
    "sinhala": "පුස්සැල්ලාව",
    "tamil": "புஸ்ஸெல்லாவா",
    "latitude": 7.1073,
    "longitude": 80.6322,
    "accuracy": 4.0
  },
  {
    "country_code": "LK",
    "province": "Central",
    "province_code": "LK2",
    "district": "Kandy",
    "disid": "LK21",
    "ds_aga": null,
    "ds_code": null,
    "postal_code": 20112,
    "place_name_english": "Pujapitiya",
    "sinhala": "පූජාපිටිය",
    "tamil": "பூஜாபிட்டி",
    "latitude": 7.3742,
    "longitude": 80.586,
    "accuracy": 4.0
  },
  {
    "country_code": "LK",
    "province": "Central",
    "province_code": "LK2",
    "district": "Kandy",
    "disid": "LK21",
    "ds_aga": null,
    "ds_code": null,
    "postal_code": 20400,
    "place_name_english": "Peradeniya",
    "sinhala": "පේරාදෙණිය",
    "tamil": "பெரடேனியா",
    "latitude": 7.2622,
    "longitude": 80.5841,
    "accuracy": 4.0
  },
  {
    "country_code": "LK",
    "province": "Central",
    "province_code": "LK2",
    "district": "Kandy",
    "disid": "LK21",
    "ds_aga": null,
    "ds_code": null,
    "postal_code": 20250,
    "place_name_english": "Polgolla",
    "sinhala": "පොල්ගොල්ල",
    "tamil": "போல்கொல்லா",
    "latitude": 7.3308,
    "longitude": 80.6461,
    "accuracy": 4.0
  },
  {
    "country_code": "LK",
    "province": "Central",
    "province_code": "LK2",
    "district": "Kandy",
    "disid": "LK21",
    "ds_aga": null,
    "ds_code": null,
    "postal_code": 20106,
    "place_name_english": "Poholiyadda",
    "sinhala": "පොහොලියද්ද",
    "tamil": "பொஹோலியதா",
    "latitude": 7.3472,
    "longitude": 80.5208,
    "accuracy": 4.0
  },
  {
    "country_code": "LK",
    "province": "Central",
    "province_code": "LK2",
    "district": "Kandy",
    "disid": "LK21",
    "ds_aga": null,
    "ds_code": null,
    "postal_code": 20154,
    "place_name_english": "Batagolladeniya",
    "sinhala": "බටගොල්ලදෙනිය",
    "tamil": "படகொல்லடேனியா",
    "latitude": 7.4173,
    "longitude": 80.5617,
    "accuracy": 4.0
  },
  {
    "country_code": "LK",
    "province": "Central",
    "province_code": "LK2",
    "district": "Kandy",
    "disid": "LK21",
    "ds_aga": null,
    "ds_code": null,
    "postal_code": 20132,
    "place_name_english": "Batugoda",
    "sinhala": "බටුගොඩ",
    "tamil": "படுகோடா",
    "latitude": 7.362,
    "longitude": 80.5891,
    "accuracy": 4.0
  },
  {
    "country_code": "LK",
    "province": "Central",
    "province_code": "LK2",
    "district": "Kandy",
    "disid": "LK21",
    "ds_aga": null,
    "ds_code": null,
    "postal_code": 20966,
    "place_name_english": "Batumulla",
    "sinhala": "බටුමුල්ල",
    "tamil": "படுமுல்லா",
    "latitude": 7.4167,
    "longitude": 80.9333,
    "accuracy": 4.0
  },
  {
    "country_code": "LK",
    "province": "Central",
    "province_code": "LK2",
    "district": "Kandy",
    "disid": "LK21",
    "ds_aga": null,
    "ds_code": null,
    "postal_code": 20644,
    "place_name_english": "Bambaragahaela",
    "sinhala": "බම්බරගහඇල",
    "tamil": "பம்பரகஹேலா",
    "latitude": 7.0447,
    "longitude": 80.5235,
    "accuracy": 1.0
  },
  {
    "country_code": "LK",
    "province": "Central",
    "province_code": "LK2",
    "district": "Kandy",
    "disid": "LK21",
    "ds_aga": null,
    "ds_code": null,
    "postal_code": 20967,
    "place_name_english": "Barawardhana Oya",
    "sinhala": "බරවර්ධන ඔය",
    "tamil": "பரவர்தன ஓயா",
    "latitude": 7.2879,
    "longitude": 80.9616,
    "accuracy": 1.0
  },
  {
    "country_code": "LK",
    "province": "Central",
    "province_code": "LK2",
    "district": "Kandy",
    "disid": "LK21",
    "ds_aga": null,
    "ds_code": null,
    "postal_code": 20308,
    "place_name_english": "Balana",
    "sinhala": "බලන",
    "tamil": "பாலானா",
    "latitude": 7.2706,
    "longitude": 80.4832,
    "accuracy": 4.0
  },
  {
    "country_code": "LK",
    "province": "Central",
    "province_code": "LK2",
    "district": "Kandy",
    "disid": "LK21",
    "ds_aga": null,
    "ds_code": null,
    "postal_code": 20218,
    "place_name_english": "Bawlana",
    "sinhala": "බව්ලාන",
    "tamil": "பாவ்லானா",
    "latitude": 7.2278,
    "longitude": 80.7174,
    "accuracy": 1.0
  },
  {
    "country_code": "LK",
    "province": "Central",
    "province_code": "LK2",
    "district": "Kandy",
    "disid": "LK21",
    "ds_aga": null,
    "ds_code": null,
    "postal_code": 20932,
    "place_name_english": "Bopana",
    "sinhala": "බෝපාන",
    "tamil": "போபனா",
    "latitude": 7.3,
    "longitude": 80.9,
    "accuracy": 4.0
  },
  {
    "country_code": "LK",
    "province": "Central",
    "province_code": "LK2",
    "district": "Kandy",
    "disid": "LK21",
    "ds_aga": null,
    "ds_code": null,
    "postal_code": 20921,
    "place_name_english": "Makuldeniya",
    "sinhala": "මකුල්දෙනිය",
    "tamil": "மகுல்தேனியா",
    "latitude": 7.3333,
    "longitude": 80.7833,
    "accuracy": 4.0
  },
  {
    "country_code": "LK",
    "province": "Central",
    "province_code": "LK2",
    "district": "Kandy",
    "disid": "LK21",
    "ds_aga": null,
    "ds_code": null,
    "postal_code": 20828,
    "place_name_english": "Makkanigama",
    "sinhala": "මක්කනිගම",
    "tamil": "மக்கனிகம",
    "latitude": 7.3792,
    "longitude": 80.6429,
    "accuracy": 1.0
  },
  {
    "country_code": "LK",
    "province": "Central",
    "province_code": "LK2",
    "district": "Kandy",
    "disid": "LK21",
    "ds_aga": null,
    "ds_code": null,
    "postal_code": 20186,
    "place_name_english": "Kengalla",
    "sinhala": "කෙන්ගල්ල",
    "tamil": "கங்கல்லா",
    "latitude": 7.2945,
    "longitude": 80.711,
    "accuracy": 4.0
  },
  {
    "country_code": "LK",
    "province": "Central",
    "province_code": "LK2",
    "district": "Kandy",
    "disid": "LK21",
    "ds_aga": null,
    "ds_code": null,
    "postal_code": 20260,
    "place_name_english": "Madawala Bazaar",
    "sinhala": "මඩවල බසාර්",
    "tamil": "மடவாலா பஜார்",
    "latitude": 7.2574,
    "longitude": 80.6715,
    "accuracy": 1.0
  },
  {
    "country_code": "LK",
    "province": "Central",
    "province_code": "LK2",
    "district": "Kandy",
    "disid": "LK21",
    "ds_aga": null,
    "ds_code": null,
    "postal_code": 20938,
    "place_name_english": "Madugalla",
    "sinhala": "මඩුගල්ල",
    "tamil": "மதுக்கல்லா",
    "latitude": 7.2667,
    "longitude": 80.8833,
    "accuracy": 4.0
  },
  {
    "country_code": "LK",
    "province": "Central",
    "province_code": "LK2",
    "district": "Kandy",
    "disid": "LK21",
    "ds_aga": null,
    "ds_code": null,
    "postal_code": 20840,
    "place_name_english": "Madulkele",
    "sinhala": "මඩුල්කැලේ",
    "tamil": "மதுல்கேலே",
    "latitude": 7.3979,
    "longitude": 80.731,
    "accuracy": 4.0
  },
  {
    "country_code": "LK",
    "province": "Central",
    "province_code": "LK2",
    "district": "Kandy",
    "disid": "LK21",
    "ds_aga": null,
    "ds_code": null,
    "postal_code": 20748,
    "place_name_english": "Maturata",
    "sinhala": "මතුරට",
    "tamil": "மாதுரதா",
    "latitude": 7.0742,
    "longitude": 80.7897,
    "accuracy": 4.0
  },
  {
    "country_code": "LK",
    "province": "Central",
    "province_code": "LK2",
    "district": "Kandy",
    "disid": "LK21",
    "ds_aga": null,
    "ds_code": null,
    "postal_code": 20744,
    "place_name_english": "Mandaram Nuwara",
    "sinhala": "මන්දාරම් නුවර",
    "tamil": "மந்தரம் நுவாரா",
    "latitude": 7.0642,
    "longitude": 80.7844,
    "accuracy": 1.0
  },
  {
    "country_code": "LK",
    "province": "Central",
    "province_code": "LK2",
    "district": "Kandy",
    "disid": "LK21",
    "ds_aga": null,
    "ds_code": null,
    "postal_code": 20702,
    "place_name_english": "Mailapitiya",
    "sinhala": "මයිලපිටිය",
    "tamil": "மைலாபிட்டி",
    "latitude": 7.1998,
    "longitude": 80.7552,
    "accuracy": 1.0
  },
  {
    "country_code": "LK",
    "province": "Central",
    "province_code": "LK2",
    "district": "Kandy",
    "disid": "LK21",
    "ds_aga": null,
    "ds_code": null,
    "postal_code": 20945,
    "place_name_english": "Mahadoraliyadda",
    "sinhala": "මහදොරලියද්ද",
    "tamil": "மஹடோரலியதா",
    "latitude": 7.3,
    "longitude": 80.85,
    "accuracy": 1.0
  },
  {
    "country_code": "LK",
    "province": "Central",
    "province_code": "LK2",
    "district": "Kandy",
    "disid": "LK21",
    "ds_aga": null,
    "ds_code": null,
    "postal_code": 20000,
    "place_name_english": "Kandy",
    "sinhala": "මහනුවර",
    "tamil": "கண்டி",
    "latitude": 7.2955,
    "longitude": 80.6356,
    "accuracy": 4.0
  },
  {
    "country_code": "LK",
    "province": "Central",
    "province_code": "LK2",
    "district": "Kandy",
    "disid": "LK21",
    "ds_aga": null,
    "ds_code": null,
    "postal_code": 20216,
    "place_name_english": "Mahamedagama",
    "sinhala": "මහමැඩගම",
    "tamil": "மகாமதகம",
    "latitude": 7.2278,
    "longitude": 80.7174,
    "accuracy": 1.0
  },
  {
    "country_code": "LK",
    "province": "Central",
    "province_code": "LK2",
    "district": "Kandy",
    "disid": "LK21",
    "ds_aga": null,
    "ds_code": null,
    "postal_code": 20662,
    "place_name_english": "Mapakanda",
    "sinhala": "මාපාකන්ද",
    "tamil": "மாபகாண்டா",
    "latitude": 7.0243,
    "longitude": 80.5504,
    "accuracy": 1.0
  },
  {
    "country_code": "LK",
    "province": "Central",
    "province_code": "LK2",
    "district": "Kandy",
    "disid": "LK21",
    "ds_aga": null,
    "ds_code": null,
    "postal_code": 20210,
    "place_name_english": "Marassana",
    "sinhala": "මාරස්සන",
    "tamil": "மராசனா",
    "latitude": 7.2251,
    "longitude": 80.7352,
    "accuracy": 4.0
  },
  {
    "country_code": "LK",
    "province": "Central",
    "province_code": "LK2",
    "district": "Kandy",
    "disid": "LK21",
    "ds_aga": null,
    "ds_code": null,
    "postal_code": 20564,
    "place_name_english": "Mawatura",
    "sinhala": "මාවතුර",
    "tamil": "மாவதுரா",
    "latitude": 7.1,
    "longitude": 80.5667,
    "accuracy": 4.0
  },
  {
    "country_code": "LK",
    "province": "Central",
    "province_code": "LK2",
    "district": "Kandy",
    "disid": "LK21",
    "ds_aga": null,
    "ds_code": null,
    "postal_code": 20470,
    "place_name_english": "Menikdiwela",
    "sinhala": "මැණික්දිවෙල",
    "tamil": "மெனிக்டிவேலா",
    "latitude": 7.2892,
    "longitude": 80.5041,
    "accuracy": 4.0
  },
  {
    "country_code": "LK",
    "province": "Central",
    "province_code": "LK2",
    "district": "Kandy",
    "disid": "LK21",
    "ds_aga": null,
    "ds_code": null,
    "postal_code": 20170,
    "place_name_english": "Menikhinna",
    "sinhala": "මැණික්හින්න",
    "tamil": "மேனிகின்னா",
    "latitude": 7.3184,
    "longitude": 80.6995,
    "accuracy": 4.0
  },
  {
    "country_code": "LK",
    "province": "Central",
    "province_code": "LK2",
    "district": "Kandy",
    "disid": "LK21",
    "ds_aga": null,
    "ds_code": null,
    "postal_code": 20120,
    "place_name_english": "Medawala Harispattuwa",
    "sinhala": "මැදවල හාරිස්පත්තුව",
    "tamil": "மேடவால ஹரிஸ்பட்டுவா",
    "latitude": 7.3449,
    "longitude": 80.6814,
    "accuracy": 1.0
  },
  {
    "country_code": "LK",
    "province": "Central",
    "province_code": "LK2",
    "district": "Kandy",
    "disid": "LK21",
    "ds_aga": null,
    "ds_code": null,
    "postal_code": 20109,
    "place_name_english": "Minigamuwa",
    "sinhala": "මිනිගමුව",
    "tamil": "மினிகமுவ",
    "latitude": 7.3376,
    "longitude": 80.5026,
    "accuracy": 4.0
  },
  {
    "country_code": "LK",
    "province": "Central",
    "province_code": "LK2",
    "district": "Kandy",
    "disid": "LK21",
    "ds_aga": null,
    "ds_code": null,
    "postal_code": 20983,
    "place_name_english": "Minipe",
    "sinhala": "මිනිපේ",
    "tamil": "மினிப்",
    "latitude": 7.2182,
    "longitude": 80.9775,
    "accuracy": 4.0
  },
  {
    "country_code": "LK",
    "province": "Central",
    "province_code": "LK2",
    "district": "Kandy",
    "disid": "LK21",
    "ds_aga": null,
    "ds_code": null,
    "postal_code": 20923,
    "place_name_english": "Mimure",
    "sinhala": "මිමුරේ",
    "tamil": "மிமூர்",
    "latitude": 7.4333,
    "longitude": 80.8333,
    "accuracy": 4.0
  },
  {
    "country_code": "LK",
    "province": "Central",
    "province_code": "LK2",
    "district": "Kandy",
    "disid": "LK21",
    "ds_aga": null,
    "ds_code": null,
    "postal_code": 20512,
    "place_name_english": "Meetalawa",
    "sinhala": "මීතලාව",
    "tamil": "மீட்டலாவா",
    "latitude": 7.0976,
    "longitude": 80.4696,
    "accuracy": 1.0
  },
  {
    "country_code": "LK",
    "province": "Central",
    "province_code": "LK2",
    "district": "Kandy",
    "disid": "LK21",
    "ds_aga": null,
    "ds_code": null,
    "postal_code": 20526,
    "place_name_english": "Muruthagahamulla",
    "sinhala": "මුරුතගහමුල්ල",
    "tamil": "முருதகஹமுல்லா",
    "latitude": 7.1049,
    "longitude": 80.5917,
    "accuracy": 1.0
  },
  {
    "country_code": "LK",
    "province": "Central",
    "province_code": "LK2",
    "district": "Kandy",
    "disid": "LK21",
    "ds_aga": null,
    "ds_code": null,
    "postal_code": 20232,
    "place_name_english": "Murutalawa",
    "sinhala": "මුරුතලාව",
    "tamil": "முருதலவா",
    "latitude": 7.2928,
    "longitude": 80.572,
    "accuracy": 4.0
  },
  {
    "country_code": "LK",
    "province": "Central",
    "province_code": "LK2",
    "district": "Kandy",
    "disid": "LK21",
    "ds_aga": null,
    "ds_code": null,
    "postal_code": 20409,
    "place_name_english": "Megoda Kalugamuwa",
    "sinhala": "මෙගෝඩ කළුගමුව",
    "tamil": "மெகோடா கலகுமுவ",
    "latitude": 7.2622,
    "longitude": 80.5841,
    "accuracy": 1.0
  },
  {
    "country_code": "LK",
    "province": "Central",
    "province_code": "LK2",
    "district": "Kandy",
    "disid": "LK21",
    "ds_aga": null,
    "ds_code": null,
    "postal_code": 20940,
    "place_name_english": "Medamahanuwara",
    "sinhala": "මැදමහ නුවර",
    "tamil": "மேடமஹானுவாரா",
    "latitude": 7.3,
    "longitude": 80.85,
    "accuracy": 1.0
  },
  {
    "country_code": "LK",
    "province": "Central",
    "province_code": "LK2",
    "district": "Kandy",
    "disid": "LK21",
    "ds_aga": null,
    "ds_code": null,
    "postal_code": 20714,
    "place_name_english": "Marymount Colony",
    "sinhala": "මේරිමවුන්ට් ජනපදය",
    "tamil": "மேரிமவுண்ட் காலனி",
    "latitude": 7.1252,
    "longitude": 80.7879,
    "accuracy": 1.0
  },
  {
    "country_code": "LK",
    "province": "Central",
    "province_code": "LK2",
    "district": "Kandy",
    "disid": "LK21",
    "ds_aga": null,
    "ds_code": null,
    "postal_code": 20034,
    "place_name_english": "Yatihalagala",
    "sinhala": "යටිගලගල",
    "tamil": "யதிஹலகல",
    "latitude": 7.2932,
    "longitude": 80.5982,
    "accuracy": 4.0
  },
  {
    "country_code": "LK",
    "province": "Central",
    "province_code": "LK2",
    "district": "Kandy",
    "disid": "LK21",
    "ds_aga": null,
    "ds_code": null,
    "postal_code": 20234,
    "place_name_english": "Yahalatenna",
    "sinhala": "යහලතැන්න",
    "tamil": "யஹலதென்னா",
    "latitude": 7.2928,
    "longitude": 80.572,
    "accuracy": 1.0
  },
  {
    "country_code": "LK",
    "province": "Central",
    "province_code": "LK2",
    "district": "Kandy",
    "disid": "LK21",
    "ds_aga": null,
    "ds_code": null,
    "postal_code": 20922,
    "place_name_english": "Rangala",
    "sinhala": "රංගල",
    "tamil": "ரங்கலா",
    "latitude": 7.3539,
    "longitude": 80.7853,
    "accuracy": 4.0
  },
  {
    "country_code": "LK",
    "province": "Central",
    "province_code": "LK2",
    "district": "Kandy",
    "disid": "LK21",
    "ds_aga": null,
    "ds_code": null,
    "postal_code": 20818,
    "place_name_english": "Rathukohodigala",
    "sinhala": "රතුකොහොදිගල",
    "tamil": "ரத்துகோஹோடிகலா",
    "latitude": 7.3566,
    "longitude": 80.6683,
    "accuracy": 1.0
  },
  {
    "country_code": "LK",
    "province": "Central",
    "province_code": "LK2",
    "district": "Kandy",
    "disid": "LK21",
    "ds_aga": null,
    "ds_code": null,
    "postal_code": 20990,
    "place_name_english": "Rantembe",
    "sinhala": "රන්ටැඹේ",
    "tamil": "ரான்டம்பே",
    "latitude": 7.3076,
    "longitude": 80.887,
    "accuracy": 1.0
  },
  {
    "country_code": "LK",
    "province": "Central",
    "province_code": "LK2",
    "district": "Kandy",
    "disid": "LK21",
    "ds_aga": null,
    "ds_code": null,
    "postal_code": 20676,
    "place_name_english": "Rambukpitiya",
    "sinhala": "රම්බුක්පිටිය",
    "tamil": "ரம்புக்பிட்டி",
    "latitude": 7.0359,
    "longitude": 80.5174,
    "accuracy": 4.0
  },
  {
    "country_code": "LK",
    "province": "Central",
    "province_code": "LK2",
    "district": "Kandy",
    "disid": "LK21",
    "ds_aga": null,
    "ds_code": null,
    "postal_code": 20128,
    "place_name_english": "Rambukwella",
    "sinhala": "රඹුක්වැල්ල ",
    "tamil": "ரம்புக்வெல்லா",
    "latitude": 7.3,
    "longitude": 80.7833,
    "accuracy": 4.0
  },
  {
    "country_code": "LK",
    "province": "Central",
    "province_code": "LK2",
    "district": "Kandy",
    "disid": "LK21",
    "ds_aga": null,
    "ds_code": null,
    "postal_code": 20180,
    "place_name_english": "Rajawella",
    "sinhala": "රාජවැල්ල",
    "tamil": "ராஜாவெல்லா",
    "latitude": 7.2959,
    "longitude": 80.7361,
    "accuracy": 4.0
  },
  {
    "country_code": "LK",
    "province": "Central",
    "province_code": "LK2",
    "district": "Kandy",
    "disid": "LK21",
    "ds_aga": null,
    "ds_code": null,
    "postal_code": 20730,
    "place_name_english": "Rikillagaskada",
    "sinhala": "රිකිල්ලගස්කඩ",
    "tamil": "ரிக்கிலகஸ்கடா",
    "latitude": 7.144,
    "longitude": 80.7834,
    "accuracy": 4.0
  },
  {
    "country_code": "LK",
    "province": "Central",
    "province_code": "LK2",
    "district": "Kandy",
    "disid": "LK21",
    "ds_aga": null,
    "ds_code": null,
    "postal_code": 20482,
    "place_name_english": "Leemagahakotuwa",
    "sinhala": "ලීමගහකොටුව",
    "tamil": "லீமகககோடுவா",
    "latitude": 7.2333,
    "longitude": 80.5833,
    "accuracy": 1.0
  },
  {
    "country_code": "LK",
    "province": "Central",
    "province_code": "LK2",
    "district": "Kandy",
    "disid": "LK21",
    "ds_aga": null,
    "ds_code": null,
    "postal_code": 20172,
    "place_name_english": "Lunuketiya Maditta",
    "sinhala": "ලුනුකේටිය මඩිත්ත",
    "tamil": "லுனுகெட்டியா மடிட்டா",
    "latitude": 7.3332,
    "longitude": 80.7127,
    "accuracy": 1.0
  },
  {
    "country_code": "LK",
    "province": "Central",
    "province_code": "LK2",
    "district": "Kandy",
    "disid": "LK21",
    "ds_aga": null,
    "ds_code": null,
    "postal_code": 20134,
    "place_name_english": "Watagoda Harispattuwa",
    "sinhala": "වටගොඩ හාරිස්පත්තුව",
    "tamil": "வட்டகொட ஹரிஸ்பட்டுவா",
    "latitude": 7.356,
    "longitude": 80.6051,
    "accuracy": 1.0
  },
  {
    "country_code": "LK",
    "province": "Central",
    "province_code": "LK2",
    "district": "Kandy",
    "disid": "LK21",
    "ds_aga": null,
    "ds_code": null,
    "postal_code": 20454,
    "place_name_english": "Wattappola",
    "sinhala": "වටප්පොල",
    "tamil": "வட்டப்போலா",
    "latitude": 7.2373,
    "longitude": 80.5431,
    "accuracy": 4.0
  },
  {
    "country_code": "LK",
    "province": "Central",
    "province_code": "LK2",
    "district": "Kandy",
    "disid": "LK21",
    "ds_aga": null,
    "ds_code": null,
    "postal_code": 20810,
    "place_name_english": "Wattegama",
    "sinhala": "වත්තේගම",
    "tamil": "வத்தேகம",
    "latitude": 7.3493,
    "longitude": 80.6808,
    "accuracy": 4.0
  },
  {
    "country_code": "LK",
    "province": "Central",
    "province_code": "LK2",
    "district": "Kandy",
    "disid": "LK21",
    "ds_aga": null,
    "ds_code": null,
    "postal_code": 20080,
    "place_name_english": "Werellagama",
    "sinhala": "වැරැල්ලගම",
    "tamil": "வெரெல்லகம",
    "latitude": 7.3167,
    "longitude": 80.5833,
    "accuracy": 4.0
  },
  {
    "country_code": "LK",
    "province": "Central",
    "province_code": "LK2",
    "district": "Kandy",
    "disid": "LK21",
    "ds_aga": null,
    "ds_code": null,
    "postal_code": 20666,
    "place_name_english": "Weligampola",
    "sinhala": "වැලිගම්පොල",
    "tamil": "வெலிகம்போலா",
    "latitude": 7.0243,
    "longitude": 80.5504,
    "accuracy": 1.0
  },
  {
    "country_code": "LK",
    "province": "Central",
    "province_code": "LK2",
    "district": "Kandy",
    "disid": "LK21",
    "ds_aga": null,
    "ds_code": null,
    "postal_code": 20610,
    "place_name_english": "Weligalla",
    "sinhala": "වැලිගල්ල",
    "tamil": "வெலிகல்லா",
    "latitude": 7.1907,
    "longitude": 80.5865,
    "accuracy": 4.0
  },
  {
    "country_code": "LK",
    "province": "Central",
    "province_code": "LK2",
    "district": "Kandy",
    "disid": "LK21",
    "ds_aga": null,
    "ds_code": null,
    "postal_code": 20108,
    "place_name_english": "Wettawa",
    "sinhala": "වෙට්ටාව",
    "tamil": "வெட்டாவா",
    "latitude": 7.3526,
    "longitude": 80.5147,
    "accuracy": 1.0
  },
  {
    "country_code": "LK",
    "province": "Central",
    "province_code": "LK2",
    "district": "Kandy",
    "disid": "LK21",
    "ds_aga": null,
    "ds_code": null,
    "postal_code": 20142,
    "place_name_english": "Wilanagama",
    "sinhala": "විලනාගම",
    "tamil": "விலனகம",
    "latitude": 7.4042,
    "longitude": 80.6087,
    "accuracy": 1.0
  },
  {
    "country_code": "LK",
    "province": "Central",
    "province_code": "LK2",
    "district": "Kandy",
    "disid": "LK21",
    "ds_aga": null,
    "ds_code": null,
    "postal_code": 20914,
    "place_name_english": "Wendaruwa",
    "sinhala": "වෙඬරුව",
    "tamil": "வெண்டருவா",
    "latitude": 7.3076,
    "longitude": 80.887,
    "accuracy": 1.0
  },
  {
    "country_code": "LK",
    "province": "Central",
    "province_code": "LK2",
    "district": "Kandy",
    "disid": "LK21",
    "ds_aga": null,
    "ds_code": null,
    "postal_code": 20640,
    "place_name_english": "Velamboda",
    "sinhala": "වෙලම්බොඩ",
    "tamil": "வேலம்போடா",
    "latitude": 7.0447,
    "longitude": 80.5235,
    "accuracy": 1.0
  },
  {
    "country_code": "LK",
    "province": "Central",
    "province_code": "LK2",
    "district": "Kandy",
    "disid": "LK21",
    "ds_aga": null,
    "ds_code": null,
    "postal_code": 20982,
    "place_name_english": "Weragantota",
    "sinhala": "වේරගන්තොට",
    "tamil": "வெரகாந்தோட்டா",
    "latitude": 7.3167,
    "longitude": 80.9833,
    "accuracy": 4.0
  },
  {
    "country_code": "LK",
    "province": "Central",
    "province_code": "LK2",
    "district": "Kandy",
    "disid": "LK21",
    "ds_aga": null,
    "ds_code": null,
    "postal_code": 20908,
    "place_name_english": "Werapitya",
    "sinhala": "වේරපිටිය",
    "tamil": "வரப்பித்யா",
    "latitude": 7.3147,
    "longitude": 80.7616,
    "accuracy": 1.0
  },
  {
    "country_code": "LK",
    "province": "Central",
    "province_code": "LK2",
    "district": "Kandy",
    "disid": "LK21",
    "ds_aga": null,
    "ds_code": null,
    "postal_code": 20044,
    "place_name_english": "Sangarajapura",
    "sinhala": "සංගරාජපුර",
    "tamil": "சங்கராஜபுரா",
    "latitude": 7.3154,
    "longitude": 80.5887,
    "accuracy": 1.0
  },
  {
    "country_code": "LK",
    "province": "Central",
    "province_code": "LK2",
    "district": "Kandy",
    "disid": "LK21",
    "ds_aga": null,
    "ds_code": null,
    "postal_code": 20904,
    "place_name_english": "Senarathwela",
    "sinhala": "සේනරත්වෙල",
    "tamil": "சேனாரத்வேலா",
    "latitude": 7.3147,
    "longitude": 80.7616,
    "accuracy": 1.0
  },
  {
    "country_code": "LK",
    "province": "Central",
    "province_code": "LK2",
    "district": "Kandy",
    "disid": "LK21",
    "ds_aga": null,
    "ds_code": null,
    "postal_code": 20710,
    "place_name_english": "Hanguranketha",
    "sinhala": "හඟුරන්කෙත",
    "tamil": "ஹங்குரங்கேத",
    "latitude": 7.1252,
    "longitude": 80.7879,
    "accuracy": 1.0
  },
  {
    "country_code": "LK",
    "province": "Central",
    "province_code": "LK2",
    "district": "Kandy",
    "disid": "LK21",
    "ds_aga": null,
    "ds_code": null,
    "postal_code": 20060,
    "place_name_english": "Hataraliyadda",
    "sinhala": "හතරලියද්ද",
    "tamil": "ஹதரலியதா",
    "latitude": 7.3369,
    "longitude": 80.4658,
    "accuracy": 4.0
  },
  {
    "country_code": "LK",
    "province": "Central",
    "province_code": "LK2",
    "district": "Kandy",
    "disid": "LK21",
    "ds_aga": null,
    "ds_code": null,
    "postal_code": 20984,
    "place_name_english": "Handaganawa",
    "sinhala": "හන්දගනාව",
    "tamil": "ஹண்டகனாவா",
    "latitude": 7.2833,
    "longitude": 80.9833,
    "accuracy": 4.0
  },
  {
    "country_code": "LK",
    "province": "Central",
    "province_code": "LK2",
    "district": "Kandy",
    "disid": "LK21",
    "ds_aga": null,
    "ds_code": null,
    "postal_code": 20438,
    "place_name_english": "Handawalapitiya",
    "sinhala": "හඳවලපිටිය",
    "tamil": "ஹண்டவலபிட்டி",
    "latitude": 7.1944,
    "longitude": 80.6917,
    "accuracy": 1.0
  },
  {
    "country_code": "LK",
    "province": "Central",
    "province_code": "LK2",
    "district": "Kandy",
    "disid": "LK21",
    "ds_aga": null,
    "ds_code": null,
    "postal_code": 20480,
    "place_name_english": "Handessa",
    "sinhala": "හන්දෙස්ස",
    "tamil": "ஹேண்டெசா",
    "latitude": 7.2333,
    "longitude": 80.5833,
    "accuracy": 4.0
  },
  {
    "country_code": "LK",
    "province": "Central",
    "province_code": "LK2",
    "district": "Kandy",
    "disid": "LK21",
    "ds_aga": null,
    "ds_code": null,
    "postal_code": 20092,
    "place_name_english": "Harankahawa",
    "sinhala": "හරන්කහව",
    "tamil": "ஹரன்கஹவா",
    "latitude": 7.4012,
    "longitude": 80.5289,
    "accuracy": 4.0
  },
  {
    "country_code": "LK",
    "province": "Central",
    "province_code": "LK2",
    "district": "Kandy",
    "disid": "LK21",
    "ds_aga": null,
    "ds_code": null,
    "postal_code": 20032,
    "place_name_english": "Halloluwa",
    "sinhala": "හල්ලොලුව",
    "tamil": "ஹலோலுவா",
    "latitude": 7.2031,
    "longitude": 80.3386,
    "accuracy": 4.0
  },
  {
    "country_code": "LK",
    "province": "Central",
    "province_code": "LK2",
    "district": "Kandy",
    "disid": "LK21",
    "ds_aga": null,
    "ds_code": null,
    "postal_code": 20960,
    "place_name_english": "Hasalaka",
    "sinhala": "හසලක",
    "tamil": "ஹசலகா",
    "latitude": 7.2879,
    "longitude": 80.9616,
    "accuracy": 1.0
  },
  {
    "country_code": "LK",
    "province": "Central",
    "province_code": "LK2",
    "district": "Kandy",
    "disid": "LK21",
    "ds_aga": null,
    "ds_code": null,
    "postal_code": 20414,
    "place_name_english": "Hindagala",
    "sinhala": "හිඳගල",
    "tamil": "ஹிண்டகலா",
    "latitude": 7.2333,
    "longitude": 80.6,
    "accuracy": 4.0
  },
  {
    "country_code": "LK",
    "province": "Central",
    "province_code": "LK2",
    "district": "Kandy",
    "disid": "LK21",
    "ds_aga": null,
    "ds_code": null,
    "postal_code": 20948,
    "place_name_english": "Hunnasgiriya",
    "sinhala": "හුන්නස්ගිරිය",
    "tamil": "ஹுன்னஸ்கிரியா",
    "latitude": 7.3,
    "longitude": 80.85,
    "accuracy": 4.0
  },
  {
    "country_code": "LK",
    "province": "Central",
    "province_code": "LK2",
    "district": "Kandy",
    "disid": "LK21",
    "ds_aga": null,
    "ds_code": null,
    "postal_code": 20440,
    "place_name_english": "Hewaheta",
    "sinhala": "හේවාහැට",
    "tamil": "ஹெவாஹெட்டா",
    "latitude": 7.107,
    "longitude": 80.7648,
    "accuracy": 4.0
  },
  {
    "country_code": "LK",
    "province": "Central",
    "province_code": "LK2",
    "district": "Kandy",
    "disid": "LK21",
    "ds_aga": null,
    "ds_code": null,
    "postal_code": 20524,
    "place_name_english": "Hondiyadeniya",
    "sinhala": "හොන්දියදෙනිය",
    "tamil": "ஹோண்டியதேனியா",
    "latitude": 7.1049,
    "longitude": 80.5917,
    "accuracy": 1.0
  },
  {
    "country_code": "LK",
    "province": "Central",
    "province_code": "LK2",
    "district": "Matale",
    "disid": "LK22",
    "ds_aga": null,
    "ds_code": null,
    "postal_code": 21142,
    "place_name_english": "Akuramboda",
    "sinhala": "අකුරම්බොඩ",
    "tamil": "அகுரம்போடா",
    "latitude": 7.6467,
    "longitude": 80.6014,
    "accuracy": 4.0
  },
  {
    "country_code": "LK",
    "province": "Central",
    "province_code": "LK2",
    "district": "Matale",
    "disid": "LK22",
    "ds_aga": null,
    "ds_code": null,
    "postal_code": 21512,
    "place_name_english": "Ataragallewa",
    "sinhala": "අතරගල්ල්ලෑව",
    "tamil": "அதரகல்லேவா",
    "latitude": 7.6622,
    "longitude": 80.7728,
    "accuracy": 1.0
  },
  {
    "country_code": "LK",
    "province": "Central",
    "province_code": "LK2",
    "district": "Matale",
    "disid": "LK22",
    "ds_aga": null,
    "ds_code": null,
    "postal_code": 21504,
    "place_name_english": "Ambana",
    "sinhala": "අම්ඹන",
    "tamil": "அம்பனா",
    "latitude": 7.6579,
    "longitude": 80.6909,
    "accuracy": 4.0
  },
  {
    "country_code": "LK",
    "province": "Central",
    "province_code": "LK2",
    "district": "Matale",
    "disid": "LK22",
    "ds_aga": null,
    "ds_code": null,
    "postal_code": 21004,
    "place_name_english": "Alwatta",
    "sinhala": "අල්වත්ත",
    "tamil": "அல்வட்டா",
    "latitude": 7.4432,
    "longitude": 80.662,
    "accuracy": 4.0
  },
  {
    "country_code": "LK",
    "province": "Central",
    "province_code": "LK2",
    "district": "Matale",
    "disid": "LK22",
    "ds_aga": null,
    "ds_code": null,
    "postal_code": 21012,
    "place_name_english": "Elkaduwa",
    "sinhala": "ඇල්කඩුව",
    "tamil": "எல்கடுவா",
    "latitude": 7.4145,
    "longitude": 80.6825,
    "accuracy": 4.0
  },
  {
    "country_code": "LK",
    "province": "Central",
    "province_code": "LK2",
    "district": "Matale",
    "disid": "LK22",
    "ds_aga": null,
    "ds_code": null,
    "postal_code": 21124,
    "place_name_english": "Inamaluwa",
    "sinhala": "ඉනාමළුව",
    "tamil": "இனமாலுவ",
    "latitude": 7.9314,
    "longitude": 80.6845,
    "accuracy": 4.0
  },
  {
    "country_code": "LK",
    "province": "Central",
    "province_code": "LK2",
    "district": "Matale",
    "disid": "LK22",
    "ds_aga": null,
    "ds_code": null,
    "postal_code": 21064,
    "place_name_english": "Imbulgolla",
    "sinhala": "ඉම්බුල්ගොල්ල",
    "tamil": "இம்புல்கொல்லா",
    "latitude": 7.5716,
    "longitude": 80.6707,
    "accuracy": 4.0
  },
  {
    "country_code": "LK",
    "province": "Central",
    "province_code": "LK2",
    "district": "Matale",
    "disid": "LK22",
    "ds_aga": null,
    "ds_code": null,
    "postal_code": 21406,
    "place_name_english": "lllukkumbura",
    "sinhala": "ඉලුක්කුඹුර",
    "tamil": "lllukkumbura",
    "latitude": 7.5205,
    "longitude": 80.6798,
    "accuracy": 1.0
  },
  {
    "country_code": "LK",
    "province": "Central",
    "province_code": "LK2",
    "district": "Matale",
    "disid": "LK22",
    "ds_aga": null,
    "ds_code": null,
    "postal_code": 21300,
    "place_name_english": "Ukuwela",
    "sinhala": "උකුවෙල",
    "tamil": "உக்குவேலா",
    "latitude": 7.4228,
    "longitude": 80.6167,
    "accuracy": 4.0
  },
  {
    "country_code": "LK",
    "province": "Central",
    "province_code": "LK2",
    "district": "Matale",
    "disid": "LK22",
    "ds_aga": null,
    "ds_code": null,
    "postal_code": 21006,
    "place_name_english": "Udatenna",
    "sinhala": "උඩතැන්න",
    "tamil": "உதடென்னா",
    "latitude": 7.4167,
    "longitude": 80.65,
    "accuracy": 4.0
  },
  {
    "country_code": "LK",
    "province": "Central",
    "province_code": "LK2",
    "district": "Matale",
    "disid": "LK22",
    "ds_aga": null,
    "ds_code": null,
    "postal_code": 21051,
    "place_name_english": "Udasgiriya",
    "sinhala": "උඩස්ගිරිය",
    "tamil": "உதஸ்கிரியா",
    "latitude": 7.5324,
    "longitude": 80.5774,
    "accuracy": 4.0
  },
  {
    "country_code": "LK",
    "province": "Central",
    "province_code": "LK2",
    "district": "Matale",
    "disid": "LK22",
    "ds_aga": null,
    "ds_code": null,
    "postal_code": 21402,
    "place_name_english": "Etanawala",
    "sinhala": "ඇටනවල",
    "tamil": "எட்டனாவாலா",
    "latitude": 7.5205,
    "longitude": 80.6798,
    "accuracy": 1.0
  },
  {
    "country_code": "LK",
    "province": "Central",
    "province_code": "LK2",
    "district": "Matale",
    "disid": "LK22",
    "ds_aga": null,
    "ds_code": null,
    "postal_code": 21108,
    "place_name_english": "Erawula Junction",
    "sinhala": "ඇරාවුුල හන්දිය",
    "tamil": "ஈரவுலா சந்தி",
    "latitude": 7.8633,
    "longitude": 80.6842,
    "accuracy": 1.0
  },
  {
    "country_code": "LK",
    "province": "Central",
    "province_code": "LK2",
    "district": "Matale",
    "disid": "LK22",
    "ds_aga": null,
    "ds_code": null,
    "postal_code": 21076,
    "place_name_english": "Opalgala",
    "sinhala": "ඔපල්ගල",
    "tamil": "ஓபல்கலா",
    "latitude": 7.6353,
    "longitude": 80.6923,
    "accuracy": 4.0
  },
  {
    "country_code": "LK",
    "province": "Central",
    "province_code": "LK2",
    "district": "Matale",
    "disid": "LK22",
    "ds_aga": null,
    "ds_code": null,
    "postal_code": 21020,
    "place_name_english": "Ovilikanda",
    "sinhala": "ඔවිලිකන්ද",
    "tamil": "ஓவிலிகந்தா",
    "latitude": 7.45,
    "longitude": 80.5667,
    "accuracy": 4.0
  },
  {
    "country_code": "LK",
    "province": "Central",
    "province_code": "LK2",
    "district": "Matale",
    "disid": "LK22",
    "ds_aga": null,
    "ds_code": null,
    "postal_code": 21016,
    "place_name_english": "Katudeniya",
    "sinhala": "කටුදෙනියා",
    "tamil": "கட்டுதேனியா",
    "latitude": 7.3058,
    "longitude": 80.0814,
    "accuracy": 4.0
  },
  {
    "country_code": "LK",
    "province": "Central",
    "province_code": "LK2",
    "district": "Matale",
    "disid": "LK22",
    "ds_aga": null,
    "ds_code": null,
    "postal_code": 21106,
    "place_name_english": "Kandalama",
    "sinhala": "කණ්ඩලම",
    "tamil": "கண்டலமா",
    "latitude": 7.8667,
    "longitude": 80.7167,
    "accuracy": 4.0
  },
  {
    "country_code": "LK",
    "province": "Central",
    "province_code": "LK2",
    "district": "Matale",
    "disid": "LK22",
    "ds_aga": null,
    "ds_code": null,
    "postal_code": 21066,
    "place_name_english": "Kaikawala",
    "sinhala": "කයිකාවල",
    "tamil": "கைகாவாலா",
    "latitude": 7.5072,
    "longitude": 80.6569,
    "accuracy": 4.0
  },
  {
    "country_code": "LK",
    "province": "Central",
    "province_code": "LK2",
    "district": "Matale",
    "disid": "LK22",
    "ds_aga": null,
    "ds_code": null,
    "postal_code": 21014,
    "place_name_english": "Karagahinna",
    "sinhala": "කරගහින්න",
    "tamil": "கரகாஹின்னா",
    "latitude": 7.3601,
    "longitude": 80.382,
    "accuracy": 1.0
  },
  {
    "country_code": "LK",
    "province": "Central",
    "province_code": "LK2",
    "district": "Matale",
    "disid": "LK22",
    "ds_aga": null,
    "ds_code": null,
    "postal_code": 21072,
    "place_name_english": "Kavudupelella",
    "sinhala": "කවුඩුුපැලැල්ල",
    "tamil": "கவதுபெலெல்லா",
    "latitude": 7.5813,
    "longitude": 80.6267,
    "accuracy": 4.0
  },
  {
    "country_code": "LK",
    "province": "Central",
    "province_code": "LK2",
    "district": "Matale",
    "disid": "LK22",
    "ds_aga": null,
    "ds_code": null,
    "postal_code": 21112,
    "place_name_english": "Kalundawa",
    "sinhala": "කළුන්දෑව",
    "tamil": "கலுண்டாவா",
    "latitude": 7.8,
    "longitude": 80.7167,
    "accuracy": 4.0
  },
  {
    "country_code": "LK",
    "province": "Central",
    "province_code": "LK2",
    "district": "Matale",
    "disid": "LK22",
    "ds_aga": null,
    "ds_code": null,
    "postal_code": 21122,
    "place_name_english": "Kibissa",
    "sinhala": "කිබිස්ස",
    "tamil": "கிபிசா",
    "latitude": 7.9412,
    "longitude": 80.7252,
    "accuracy": 4.0
  },
  {
    "country_code": "LK",
    "province": "Central",
    "province_code": "LK2",
    "district": "Matale",
    "disid": "LK22",
    "ds_aga": null,
    "ds_code": null,
    "postal_code": 21042,
    "place_name_english": "Kiwula",
    "sinhala": "කිවුල",
    "tamil": "கிவுலா",
    "latitude": 7.5193,
    "longitude": 80.5657,
    "accuracy": 1.0
  },
  {
    "country_code": "LK",
    "province": "Central",
    "province_code": "LK2",
    "district": "Matale",
    "disid": "LK22",
    "ds_aga": null,
    "ds_code": null,
    "postal_code": 21500,
    "place_name_english": "Kongahawela",
    "sinhala": "කෝංගහවෙල",
    "tamil": "கொங்கஹவேலா",
    "latitude": 7.6742,
    "longitude": 80.7171,
    "accuracy": 4.0
  },
  {
    "country_code": "LK",
    "province": "Central",
    "province_code": "LK2",
    "district": "Matale",
    "disid": "LK22",
    "ds_aga": null,
    "ds_code": null,
    "postal_code": 21404,
    "place_name_english": "Gangala Puwakpitiya",
    "sinhala": "ගංගල පුවක්පිටිය",
    "tamil": "கங்கலா புவக்பிட்டி",
    "latitude": 7.5205,
    "longitude": 80.6798,
    "accuracy": 1.0
  },
  {
    "country_code": "LK",
    "province": "Central",
    "province_code": "LK2",
    "district": "Matale",
    "disid": "LK22",
    "ds_aga": null,
    "ds_code": null,
    "postal_code": 21068,
    "place_name_english": "Gammaduwa",
    "sinhala": "ගම්මඩුව",
    "tamil": "கம்மதுவா",
    "latitude": 7.5686,
    "longitude": 80.6961,
    "accuracy": 4.0
  },
  {
    "country_code": "LK",
    "province": "Central",
    "province_code": "LK2",
    "district": "Matale",
    "disid": "LK22",
    "ds_aga": null,
    "ds_code": null,
    "postal_code": 21200,
    "place_name_english": "Galewela",
    "sinhala": "ගලේවෙල",
    "tamil": "கலேவேலா",
    "latitude": 7.7589,
    "longitude": 80.5683,
    "accuracy": 4.0
  },
  {
    "country_code": "LK",
    "province": "Central",
    "province_code": "LK2",
    "district": "Matale",
    "disid": "LK22",
    "ds_aga": null,
    "ds_code": null,
    "postal_code": 21116,
    "place_name_english": "Talakiriyagama",
    "sinhala": "තලකිරියාගම",
    "tamil": "தலகிரியகம",
    "latitude": 7.8206,
    "longitude": 80.6172,
    "accuracy": 4.0
  },
  {
    "country_code": "LK",
    "province": "Central",
    "province_code": "LK2",
    "district": "Matale",
    "disid": "LK22",
    "ds_aga": null,
    "ds_code": null,
    "postal_code": 21506,
    "place_name_english": "Talagoda Junction",
    "sinhala": "තලගොඩ හන්දිය",
    "tamil": "தலகொட சந்தி",
    "latitude": 7.6885,
    "longitude": 80.7082,
    "accuracy": 1.0
  },
  {
    "country_code": "LK",
    "province": "Central",
    "province_code": "LK2",
    "district": "Matale",
    "disid": "LK22",
    "ds_aga": null,
    "ds_code": null,
    "postal_code": 21032,
    "place_name_english": "Dankanda",
    "sinhala": "දංකන්ද",
    "tamil": "டங்கந்தா",
    "latitude": 7.5293,
    "longitude": 80.6989,
    "accuracy": 4.0
  },
  {
    "country_code": "LK",
    "province": "Central",
    "province_code": "LK2",
    "district": "Matale",
    "disid": "LK22",
    "ds_aga": null,
    "ds_code": null,
    "postal_code": 21100,
    "place_name_english": "Dambulla",
    "sinhala": "දඹුල්ල",
    "tamil": "தம்புல்லா",
    "latitude": 7.86,
    "longitude": 80.6517,
    "accuracy": 4.0
  },
  {
    "country_code": "LK",
    "province": "Central",
    "province_code": "LK2",
    "district": "Matale",
    "disid": "LK22",
    "ds_aga": null,
    "ds_code": null,
    "postal_code": 21538,
    "place_name_english": "Dunuwilapitiya",
    "sinhala": "දුනුවිලපිටිය",
    "tamil": "துனுவிலபிட்டி",
    "latitude": 7.6622,
    "longitude": 80.7728,
    "accuracy": 1.0
  },
  {
    "country_code": "LK",
    "province": "Central",
    "province_code": "LK2",
    "district": "Matale",
    "disid": "LK22",
    "ds_aga": null,
    "ds_code": null,
    "postal_code": 21046,
    "place_name_english": "Dunkolawatta",
    "sinhala": "දුන්කොලවත්ත",
    "tamil": "துங்கோலவட்டா",
    "latitude": 7.5193,
    "longitude": 80.5657,
    "accuracy": 1.0
  },
  {
    "country_code": "LK",
    "province": "Central",
    "province_code": "LK2",
    "district": "Matale",
    "disid": "LK22",
    "ds_aga": null,
    "ds_code": null,
    "postal_code": 21054,
    "place_name_english": "Dullewa",
    "sinhala": "දුල්ලෑව",
    "tamil": "துல்லேவா",
    "latitude": 7.508,
    "longitude": 80.6003,
    "accuracy": 4.0
  },
  {
    "country_code": "LK",
    "province": "Central",
    "province_code": "LK2",
    "district": "Matale",
    "disid": "LK22",
    "ds_aga": null,
    "ds_code": null,
    "postal_code": 21552,
    "place_name_english": "Devagiriya",
    "sinhala": "දේවගිරිය",
    "tamil": "தேவகிரியா",
    "latitude": 7.5833,
    "longitude": 80.9667,
    "accuracy": 1.0
  },
  {
    "country_code": "LK",
    "province": "Central",
    "province_code": "LK2",
    "district": "Matale",
    "disid": "LK22",
    "ds_aga": null,
    "ds_code": null,
    "postal_code": 21206,
    "place_name_english": "Dewahuwa",
    "sinhala": "දේවහූව",
    "tamil": "தேவஹுவ",
    "latitude": 7.7589,
    "longitude": 80.5683,
    "accuracy": 1.0
  },
  {
    "country_code": "LK",
    "province": "Central",
    "province_code": "LK2",
    "district": "Matale",
    "disid": "LK22",
    "ds_aga": null,
    "ds_code": null,
    "postal_code": 21090,
    "place_name_english": "Naula",
    "sinhala": "නාඋල",
    "tamil": "ந ula லா",
    "latitude": 7.7047,
    "longitude": 80.6542,
    "accuracy": 4.0
  },
  {
    "country_code": "LK",
    "province": "Central",
    "province_code": "LK2",
    "district": "Matale",
    "disid": "LK22",
    "ds_aga": null,
    "ds_code": null,
    "postal_code": 21082,
    "place_name_english": "Nalanda",
    "sinhala": "නාලන්ද",
    "tamil": "நாலந்தா",
    "latitude": 7.6606,
    "longitude": 80.6424,
    "accuracy": 4.0
  },
  {
    "country_code": "LK",
    "province": "Central",
    "province_code": "LK2",
    "district": "Matale",
    "disid": "LK22",
    "ds_aga": null,
    "ds_code": null,
    "postal_code": 21534,
    "place_name_english": "Nugagolla",
    "sinhala": "නුගගොල්ල",
    "tamil": "நுககொல்லா",
    "latitude": 7.6622,
    "longitude": 80.7728,
    "accuracy": 1.0
  },
  {
    "country_code": "LK",
    "province": "Central",
    "province_code": "LK2",
    "district": "Matale",
    "disid": "LK22",
    "ds_aga": null,
    "ds_code": null,
    "postal_code": 21070,
    "place_name_english": "Palapathwela",
    "sinhala": "පලපත්වෙල",
    "tamil": "பலபத்வேலா",
    "latitude": 7.6083,
    "longitude": 80.6595,
    "accuracy": 1.0
  },
  {
    "country_code": "LK",
    "province": "Central",
    "province_code": "LK2",
    "district": "Matale",
    "disid": "LK22",
    "ds_aga": null,
    "ds_code": null,
    "postal_code": 21152,
    "place_name_english": "Pallepola",
    "sinhala": "පල්ලේපොල",
    "tamil": "பல்லேபோலா",
    "latitude": 7.6246,
    "longitude": 80.6006,
    "accuracy": 4.0
  },
  {
    "country_code": "LK",
    "province": "Central",
    "province_code": "LK2",
    "district": "Matale",
    "disid": "LK22",
    "ds_aga": null,
    "ds_code": null,
    "postal_code": 21502,
    "place_name_english": "Pubbiliya",
    "sinhala": "පුබ්බිලිය",
    "tamil": "புபிலியா",
    "latitude": 7.7333,
    "longitude": 80.7167,
    "accuracy": 4.0
  },
  {
    "country_code": "LK",
    "province": "Central",
    "province_code": "LK2",
    "district": "Matale",
    "disid": "LK22",
    "ds_aga": null,
    "ds_code": null,
    "postal_code": 21532,
    "place_name_english": "Perakanatta",
    "sinhala": "පේරකනත්ත",
    "tamil": "பேரகனட்டா",
    "latitude": 7.6622,
    "longitude": 80.7728,
    "accuracy": 1.0
  },
  {
    "country_code": "LK",
    "province": "Central",
    "province_code": "LK2",
    "district": "Matale",
    "disid": "LK22",
    "ds_aga": null,
    "ds_code": null,
    "postal_code": 21212,
    "place_name_english": "Bambaragaswewa",
    "sinhala": "බඹරගස්වැව",
    "tamil": "பம்பரகஸ்வே",
    "latitude": 7.7833,
    "longitude": 80.5333,
    "accuracy": 4.0
  },
  {
    "country_code": "LK",
    "province": "Central",
    "province_code": "LK2",
    "district": "Matale",
    "disid": "LK22",
    "ds_aga": null,
    "ds_code": null,
    "postal_code": 21214,
    "place_name_english": "Beligamuwa",
    "sinhala": "බෙලිගමුව",
    "tamil": "பெலிகமுவ",
    "latitude": 7.7167,
    "longitude": 80.55,
    "accuracy": 4.0
  },
  {
    "country_code": "LK",
    "province": "Central",
    "province_code": "LK2",
    "district": "Matale",
    "disid": "LK22",
    "ds_aga": null,
    "ds_code": null,
    "postal_code": 21074,
    "place_name_english": "Madawala Ulpotha",
    "sinhala": "මඩවල උල්පොත",
    "tamil": "மடவாலா உல்போதா",
    "latitude": 7.6083,
    "longitude": 80.6595,
    "accuracy": 1.0
  },
  {
    "country_code": "LK",
    "province": "Central",
    "province_code": "LK2",
    "district": "Matale",
    "disid": "LK22",
    "ds_aga": null,
    "ds_code": null,
    "postal_code": 21144,
    "place_name_english": "Mananwatta",
    "sinhala": "මනන්වත්ත",
    "tamil": "மனன்வத்தா",
    "latitude": 7.6168,
    "longitude": 80.6043,
    "accuracy": 1.0
  },
  {
    "country_code": "LK",
    "province": "Central",
    "province_code": "LK2",
    "district": "Matale",
    "disid": "LK22",
    "ds_aga": null,
    "ds_code": null,
    "postal_code": 21140,
    "place_name_english": "Mahawela",
    "sinhala": "මහවෙල",
    "tamil": "மகாவேலா",
    "latitude": 7.5869,
    "longitude": 80.6072,
    "accuracy": 4.0
  },
  {
    "country_code": "LK",
    "province": "Central",
    "province_code": "LK2",
    "district": "Matale",
    "disid": "LK22",
    "ds_aga": null,
    "ds_code": null,
    "postal_code": 21000,
    "place_name_english": "Matale",
    "sinhala": "මාතලේ",
    "tamil": "மாத்தலே",
    "latitude": 7.4698,
    "longitude": 80.6217,
    "accuracy": 4.0
  },
  {
    "country_code": "LK",
    "province": "Central",
    "province_code": "LK2",
    "district": "Matale",
    "disid": "LK22",
    "ds_aga": null,
    "ds_code": null,
    "postal_code": 21156,
    "place_name_english": "Madipola",
    "sinhala": "මාදිපොල",
    "tamil": "மடிபோலா",
    "latitude": 7.6833,
    "longitude": 80.5833,
    "accuracy": 4.0
  },
  {
    "country_code": "LK",
    "province": "Central",
    "province_code": "LK2",
    "district": "Matale",
    "disid": "LK22",
    "ds_aga": null,
    "ds_code": null,
    "postal_code": 21554,
    "place_name_english": "Maraka",
    "sinhala": "මාරක",
    "tamil": "மரகா",
    "latitude": 7.5833,
    "longitude": 80.9667,
    "accuracy": 4.0
  },
  {
    "country_code": "LK",
    "province": "Central",
    "province_code": "LK2",
    "district": "Matale",
    "disid": "LK22",
    "ds_aga": null,
    "ds_code": null,
    "postal_code": 21062,
    "place_name_english": "Metihakka",
    "sinhala": "මැටිහක්ක",
    "tamil": "மெதிஹக்கா",
    "latitude": 7.5368,
    "longitude": 80.6582,
    "accuracy": 4.0
  },
  {
    "country_code": "LK",
    "province": "Central",
    "province_code": "LK2",
    "district": "Matale",
    "disid": "LK22",
    "ds_aga": null,
    "ds_code": null,
    "postal_code": 21055,
    "place_name_english": "Melipitiya",
    "sinhala": "මැලිපිටිය",
    "tamil": "மெலிபிட்டியா",
    "latitude": 7.5492,
    "longitude": 80.5874,
    "accuracy": 1.0
  },
  {
    "country_code": "LK",
    "province": "Central",
    "province_code": "LK2",
    "district": "Matale",
    "disid": "LK22",
    "ds_aga": null,
    "ds_code": null,
    "postal_code": 21154,
    "place_name_english": "Millawana",
    "sinhala": "මිල්ලවන",
    "tamil": "மில்லவானா",
    "latitude": 7.6503,
    "longitude": 80.5772,
    "accuracy": 4.0
  },
  {
    "country_code": "LK",
    "province": "Central",
    "province_code": "LK2",
    "district": "Matale",
    "disid": "LK22",
    "ds_aga": null,
    "ds_code": null,
    "postal_code": 21044,
    "place_name_english": "Muwandeniya",
    "sinhala": "මුවන්දෙනිය",
    "tamil": "முவண்டேனியா",
    "latitude": 7.5167,
    "longitude": 80.5333,
    "accuracy": 4.0
  },
  {
    "country_code": "LK",
    "province": "Central",
    "province_code": "LK2",
    "district": "Matale",
    "disid": "LK22",
    "ds_aga": null,
    "ds_code": null,
    "postal_code": 21056,
    "place_name_english": "Yatawatta",
    "sinhala": "යටවත්ත",
    "tamil": "யதவத்தா",
    "latitude": 7.5649,
    "longitude": 80.5821,
    "accuracy": 4.0
  },
  {
    "country_code": "LK",
    "province": "Central",
    "province_code": "LK2",
    "district": "Matale",
    "disid": "LK22",
    "ds_aga": null,
    "ds_code": null,
    "postal_code": 21524,
    "place_name_english": "Ranamuregama",
    "sinhala": "රණමුරේගම",
    "tamil": "ரணமுரேகம",
    "latitude": 7.6622,
    "longitude": 80.7728,
    "accuracy": 1.0
  },
  {
    "country_code": "LK",
    "province": "Central",
    "province_code": "LK2",
    "district": "Matale",
    "disid": "LK22",
    "ds_aga": null,
    "ds_code": null,
    "postal_code": 21400,
    "place_name_english": "Rattota",
    "sinhala": "රත්තොට",
    "tamil": "ரட்டோட்டா",
    "latitude": 7.5205,
    "longitude": 80.6798,
    "accuracy": 4.0
  },
  {
    "country_code": "LK",
    "province": "Central",
    "province_code": "LK2",
    "district": "Matale",
    "disid": "LK22",
    "ds_aga": null,
    "ds_code": null,
    "postal_code": 21520,
    "place_name_english": "Laggala Pallegama",
    "sinhala": "ලග්ගල පල්ලේගම",
    "tamil": "லகல பல்லேகம",
    "latitude": 7.6622,
    "longitude": 80.7728,
    "accuracy": 1.0
  },
  {
    "country_code": "LK",
    "province": "Central",
    "province_code": "LK2",
    "district": "Matale",
    "disid": "LK22",
    "ds_aga": null,
    "ds_code": null,
    "postal_code": 21094,
    "place_name_english": "Lenadora",
    "sinhala": "ලෙනදොර",
    "tamil": "லெனடோரா",
    "latitude": 7.7519,
    "longitude": 80.6608,
    "accuracy": 4.0
  },
  {
    "country_code": "LK",
    "province": "Central",
    "province_code": "LK2",
    "district": "Matale",
    "disid": "LK22",
    "ds_aga": null,
    "ds_code": null,
    "postal_code": 21008,
    "place_name_english": "Leliambe",
    "sinhala": "ලෑලි අඹේ",
    "tamil": "லீலியாம்பே",
    "latitude": 7.4324,
    "longitude": 80.6501,
    "accuracy": 1.0
  },
  {
    "country_code": "LK",
    "province": "Central",
    "province_code": "LK2",
    "district": "Matale",
    "disid": "LK22",
    "ds_aga": null,
    "ds_code": null,
    "postal_code": 21048,
    "place_name_english": "Walawela",
    "sinhala": "වලවෙල",
    "tamil": "வலவேலா",
    "latitude": 7.5219,
    "longitude": 80.5981,
    "accuracy": 4.0
  },
  {
    "country_code": "LK",
    "province": "Central",
    "province_code": "LK2",
    "district": "Matale",
    "disid": "LK22",
    "ds_aga": null,
    "ds_code": null,
    "postal_code": 21160,
    "place_name_english": "Wahacotte",
    "sinhala": "වහකෝට්ටේ",
    "tamil": "வஹாகோட்டே",
    "latitude": 7.7142,
    "longitude": 80.5972,
    "accuracy": 4.0
  },
  {
    "country_code": "LK",
    "province": "Central",
    "province_code": "LK2",
    "district": "Matale",
    "disid": "LK22",
    "ds_aga": null,
    "ds_code": null,
    "postal_code": 21009,
    "place_name_english": "Wehigala",
    "sinhala": "වැහිගල",
    "tamil": "வெஹிகலா",
    "latitude": 7.4,
    "longitude": 80.6667,
    "accuracy": 4.0
  },
  {
    "country_code": "LK",
    "province": "Central",
    "province_code": "LK2",
    "district": "Matale",
    "disid": "LK22",
    "ds_aga": null,
    "ds_code": null,
    "postal_code": 21530,
    "place_name_english": "Wilgamuwa",
    "sinhala": "විල්ගමුව",
    "tamil": "வில்கமுவ",
    "latitude": 7.6622,
    "longitude": 80.7728,
    "accuracy": 1.0
  },
  {
    "country_code": "LK",
    "province": "Central",
    "province_code": "LK2",
    "district": "Matale",
    "disid": "LK22",
    "ds_aga": null,
    "ds_code": null,
    "postal_code": 21408,
    "place_name_english": "Welangahawatte",
    "sinhala": "වෙලන්ගහවත්ත",
    "tamil": "வெலங்கஹவத்தே",
    "latitude": 7.5205,
    "longitude": 80.6798,
    "accuracy": 1.0
  },
  {
    "country_code": "LK",
    "province": "Central",
    "province_code": "LK2",
    "district": "Matale",
    "disid": "LK22",
    "ds_aga": null,
    "ds_code": null,
    "postal_code": 21114,
    "place_name_english": "Wewalawewa",
    "sinhala": "වේවලවැව",
    "tamil": "வேவலவேவா",
    "latitude": 7.8103,
    "longitude": 80.6669,
    "accuracy": 1.0
  },
  {
    "country_code": "LK",
    "province": "Central",
    "province_code": "LK2",
    "district": "Matale",
    "disid": "LK22",
    "ds_aga": null,
    "ds_code": null,
    "postal_code": 21058,
    "place_name_english": "Selagama",
    "sinhala": "සැලගම",
    "tamil": "சிலகம",
    "latitude": 7.5916,
    "longitude": 80.5899,
    "accuracy": 4.0
  },
  {
    "country_code": "LK",
    "province": "Central",
    "province_code": "LK2",
    "district": "Matale",
    "disid": "LK22",
    "ds_aga": null,
    "ds_code": null,
    "postal_code": 21120,
    "place_name_english": "Sigiriya",
    "sinhala": "සීගිරිය",
    "tamil": "சிகிரியா",
    "latitude": 7.9518,
    "longitude": 80.7426,
    "accuracy": 4.0
  },
  {
    "country_code": "LK",
    "province": "Central",
    "province_code": "LK2",
    "district": "Matale",
    "disid": "LK22",
    "ds_aga": null,
    "ds_code": null,
    "postal_code": 21514,
    "place_name_english": "Hattota Amuna",
    "sinhala": "හත්තොටා අමුණ",
    "tamil": "ஹட்டோட்டா அமுனா",
    "latitude": 7.6622,
    "longitude": 80.7728,
    "accuracy": 1.0
  },
  {
    "country_code": "LK",
    "province": "Central",
    "province_code": "LK2",
    "district": "Matale",
    "disid": "LK22",
    "ds_aga": null,
    "ds_code": null,
    "postal_code": 21536,
    "place_name_english": "Handungamuwa",
    "sinhala": "හඳුන්ගමුව",
    "tamil": "ஹண்டுங்கமுவ",
    "latitude": 7.6622,
    "longitude": 80.7728,
    "accuracy": 1.0
  },
  {
    "country_code": "LK",
    "province": "Central",
    "province_code": "LK2",
    "district": "Nuwara Eliya",
    "disid": "LK23",
    "ds_aga": null,
    "ds_code": null,
    "postal_code": 20678,
    "place_name_english": "Ambagamuwa Udabulathgama",
    "sinhala": "අඹගමුව උඩබුලත්ගම",
    "tamil": "அம்பகமுவ உதபுலத்கம",
    "latitude": 7.0359,
    "longitude": 80.5174,
    "accuracy": 1.0
  },
  {
    "country_code": "LK",
    "province": "Central",
    "province_code": "LK2",
    "district": "Nuwara Eliya",
    "disid": "LK23",
    "ds_aga": null,
    "ds_code": null,
    "postal_code": 20686,
    "place_name_english": "Ambatalawa",
    "sinhala": "අඹතලාව",
    "tamil": "அம்பதலவா",
    "latitude": 6.9658,
    "longitude": 80.4958,
    "accuracy": 4.0
  },
  {
    "country_code": "LK",
    "province": "Central",
    "province_code": "LK2",
    "district": "Nuwara Eliya",
    "disid": "LK23",
    "ds_aga": null,
    "ds_code": null,
    "postal_code": 22216,
    "place_name_english": "Ambewela",
    "sinhala": "අඹේවෙල",
    "tamil": "அம்பேவேலா",
    "latitude": 6.873,
    "longitude": 80.8106,
    "accuracy": 4.0
  },
  {
    "country_code": "LK",
    "province": "Central",
    "province_code": "LK2",
    "district": "Nuwara Eliya",
    "disid": "LK23",
    "ds_aga": null,
    "ds_code": null,
    "postal_code": 22094,
    "place_name_english": "Agarapathana",
    "sinhala": "ආගරපතන",
    "tamil": "அகரபத்தன",
    "latitude": 6.9217,
    "longitude": 80.685,
    "accuracy": 1.0
  },
  {
    "country_code": "LK",
    "province": "Central",
    "province_code": "LK2",
    "district": "Nuwara Eliya",
    "disid": "LK23",
    "ds_aga": null,
    "ds_code": null,
    "postal_code": 22250,
    "place_name_english": "Udapussallawa",
    "sinhala": "උඩපුස්සැල්ලාව",
    "tamil": "உதபுஸ்ஸல்லவா",
    "latitude": 7.0308,
    "longitude": 80.9105,
    "accuracy": 1.0
  },
  {
    "country_code": "LK",
    "province": "Central",
    "province_code": "LK2",
    "district": "Nuwara Eliya",
    "disid": "LK23",
    "ds_aga": null,
    "ds_code": null,
    "postal_code": 22285,
    "place_name_english": "Udamadura",
    "sinhala": "උඩමාදුර",
    "tamil": "உதமதுரா",
    "latitude": 7.0854,
    "longitude": 80.9165,
    "accuracy": 4.0
  },
  {
    "country_code": "LK",
    "province": "Central",
    "province_code": "LK2",
    "district": "Nuwara Eliya",
    "disid": "LK23",
    "ds_aga": null,
    "ds_code": null,
    "postal_code": 20588,
    "place_name_english": "Katukitula",
    "sinhala": "කටුකිටුල",
    "tamil": "கட்டுகிட்டுலா",
    "latitude": 7.0741,
    "longitude": 80.6584,
    "accuracy": 4.0
  },
  {
    "country_code": "LK",
    "province": "Central",
    "province_code": "LK2",
    "district": "Nuwara Eliya",
    "disid": "LK23",
    "ds_aga": null,
    "ds_code": null,
    "postal_code": 22220,
    "place_name_english": "Kandapola",
    "sinhala": "කඳපොල",
    "tamil": "கண்டபோலா",
    "latitude": 6.9894,
    "longitude": 80.8127,
    "accuracy": 4.0
  },
  {
    "country_code": "LK",
    "province": "Central",
    "province_code": "LK2",
    "district": "Nuwara Eliya",
    "disid": "LK23",
    "ds_aga": null,
    "ds_code": null,
    "postal_code": 22282,
    "place_name_english": "Kalaganwatta",
    "sinhala": "කලගන්වත්ත",
    "tamil": "கலகன்வத்தா",
    "latitude": 7.1,
    "longitude": 80.9,
    "accuracy": 4.0
  },
  {
    "country_code": "LK",
    "province": "Central",
    "province_code": "LK2",
    "district": "Nuwara Eliya",
    "disid": "LK23",
    "ds_aga": null,
    "ds_code": null,
    "postal_code": 20660,
    "place_name_english": "Ketaboola",
    "sinhala": "කැටබූල",
    "tamil": "கேடபூலா",
    "latitude": 7.0243,
    "longitude": 80.5504,
    "accuracy": 1.0
  },
  {
    "country_code": "LK",
    "province": "Central",
    "province_code": "LK2",
    "district": "Nuwara Eliya",
    "disid": "LK23",
    "ds_aga": null,
    "ds_code": null,
    "postal_code": 22274,
    "place_name_english": "Keerthi Bandarapura",
    "sinhala": "කීර්ති බණ්ඩාරපුර",
    "tamil": "கீர்த்தி பந்தரபுரா",
    "latitude": 7.1141,
    "longitude": 80.8511,
    "accuracy": 1.0
  },
  {
    "country_code": "LK",
    "province": "Central",
    "province_code": "LK2",
    "district": "Nuwara Eliya",
    "disid": "LK23",
    "ds_aga": null,
    "ds_code": null,
    "postal_code": 22272,
    "place_name_english": "Kumbalgamuwa",
    "sinhala": "කුම්ඹල්ගමුව",
    "tamil": "கும்பல்கமுவ",
    "latitude": 7.1141,
    "longitude": 80.8511,
    "accuracy": 4.0
  },
  {
    "country_code": "LK",
    "province": "Central",
    "province_code": "LK2",
    "district": "Nuwara Eliya",
    "disid": "LK23",
    "ds_aga": null,
    "ds_code": null,
    "postal_code": 22246,
    "place_name_english": "Kumbukwela",
    "sinhala": "කුඹුක්වෙල",
    "tamil": "கும்புக்வேலா",
    "latitude": 7.0612,
    "longitude": 80.8757,
    "accuracy": 4.0
  },
  {
    "country_code": "LK",
    "province": "Central",
    "province_code": "LK2",
    "district": "Nuwara Eliya",
    "disid": "LK23",
    "ds_aga": null,
    "ds_code": null,
    "postal_code": 22252,
    "place_name_english": "Kurupanawela",
    "sinhala": "කුරුපනවෙල",
    "tamil": "குருபனவேலா",
    "latitude": 7.009,
    "longitude": 80.9052,
    "accuracy": 4.0
  },
  {
    "country_code": "LK",
    "province": "Central",
    "province_code": "LK2",
    "district": "Nuwara Eliya",
    "disid": "LK23",
    "ds_aga": null,
    "ds_code": null,
    "postal_code": 20688,
    "place_name_english": "Kelanigama",
    "sinhala": "කැළණිගම",
    "tamil": "களனிகம",
    "latitude": 6.9826,
    "longitude": 80.4772,
    "accuracy": 1.0
  },
  {
    "country_code": "LK",
    "province": "Central",
    "province_code": "LK2",
    "district": "Nuwara Eliya",
    "disid": "LK23",
    "ds_aga": null,
    "ds_code": null,
    "postal_code": 22080,
    "place_name_english": "Kotagala",
    "sinhala": "කොටගල",
    "tamil": "கோட்டகலா",
    "latitude": 6.9284,
    "longitude": 80.6061,
    "accuracy": 4.0
  },
  {
    "country_code": "LK",
    "province": "Central",
    "province_code": "LK2",
    "district": "Nuwara Eliya",
    "disid": "LK23",
    "ds_aga": null,
    "ds_code": null,
    "postal_code": 22040,
    "place_name_english": "Kottellena",
    "sinhala": "කොට්ටෙල්ලෙන",
    "tamil": "கோட்டெல்லெனா",
    "latitude": 6.9359,
    "longitude": 80.4583,
    "accuracy": 1.0
  },
  {
    "country_code": "LK",
    "province": "Central",
    "province_code": "LK2",
    "district": "Nuwara Eliya",
    "disid": "LK23",
    "ds_aga": null,
    "ds_code": null,
    "postal_code": 20560,
    "place_name_english": "Kotmale",
    "sinhala": "කොත්මලේ",
    "tamil": "கோட்மலே",
    "latitude": 7.0142,
    "longitude": 80.5897,
    "accuracy": 4.0
  },
  {
    "country_code": "LK",
    "province": "Central",
    "province_code": "LK2",
    "district": "Nuwara Eliya",
    "disid": "LK23",
    "ds_aga": null,
    "ds_code": null,
    "postal_code": 20680,
    "place_name_english": "Ginigathena",
    "sinhala": "ගිනිගත්හේන",
    "tamil": "கினிகாதேனா",
    "latitude": 6.9903,
    "longitude": 80.4877,
    "accuracy": 4.0
  },
  {
    "country_code": "LK",
    "province": "Central",
    "province_code": "LK2",
    "district": "Nuwara Eliya",
    "disid": "LK23",
    "ds_aga": null,
    "ds_code": null,
    "postal_code": 22226,
    "place_name_english": "Gonakele",
    "sinhala": "ගෝනකැලේ",
    "tamil": "கோனகலே",
    "latitude": 7.0568,
    "longitude": 80.8074,
    "accuracy": 4.0
  },
  {
    "country_code": "LK",
    "province": "Central",
    "province_code": "LK2",
    "district": "Nuwara Eliya",
    "disid": "LK23",
    "ds_aga": null,
    "ds_code": null,
    "postal_code": 22100,
    "place_name_english": "Talawakele",
    "sinhala": "තලවකැලේ",
    "tamil": "தலவாகேலே",
    "latitude": 6.9371,
    "longitude": 80.6581,
    "accuracy": 4.0
  },
  {
    "country_code": "LK",
    "province": "Central",
    "province_code": "LK2",
    "district": "Nuwara Eliya",
    "disid": "LK23",
    "ds_aga": null,
    "ds_code": null,
    "postal_code": 22287,
    "place_name_english": "Teripeha",
    "sinhala": "ටෙරීපැහැ",
    "tamil": "டெரிபெஹா",
    "latitude": 7.1181,
    "longitude": 80.9179,
    "accuracy": 4.0
  },
  {
    "country_code": "LK",
    "province": "Central",
    "province_code": "LK2",
    "district": "Nuwara Eliya",
    "disid": "LK23",
    "ds_aga": null,
    "ds_code": null,
    "postal_code": 20684,
    "place_name_english": "Dagampitiya",
    "sinhala": "දාගම්පිටිය",
    "tamil": "தாகம்பிட்டி",
    "latitude": 6.9759,
    "longitude": 80.4738,
    "accuracy": 4.0
  },
  {
    "country_code": "LK",
    "province": "Central",
    "province_code": "LK2",
    "district": "Nuwara Eliya",
    "disid": "LK23",
    "ds_aga": null,
    "ds_code": null,
    "postal_code": 22096,
    "place_name_english": "Dayagama Bazaar",
    "sinhala": "දයාගම බසාර්",
    "tamil": "தயகம பஜார்",
    "latitude": 6.9217,
    "longitude": 80.685,
    "accuracy": 1.0
  },
  {
    "country_code": "LK",
    "province": "Central",
    "province_code": "LK2",
    "district": "Nuwara Eliya",
    "disid": "LK23",
    "ds_aga": null,
    "ds_code": null,
    "postal_code": 22050,
    "place_name_english": "Dikoya",
    "sinhala": "දික්ඔය",
    "tamil": "டிகோயா",
    "latitude": 6.8713,
    "longitude": 80.6,
    "accuracy": 4.0
  },
  {
    "country_code": "LK",
    "province": "Central",
    "province_code": "LK2",
    "district": "Nuwara Eliya",
    "disid": "LK23",
    "ds_aga": null,
    "ds_code": null,
    "postal_code": 22002,
    "place_name_english": "Dunukedeniya",
    "sinhala": "දුනුකෙදෙනිය",
    "tamil": "துனுகதேனியா",
    "latitude": 7.0,
    "longitude": 80.6333,
    "accuracy": 4.0
  },
  {
    "country_code": "LK",
    "province": "Central",
    "province_code": "LK2",
    "district": "Nuwara Eliya",
    "disid": "LK23",
    "ds_aga": null,
    "ds_code": null,
    "postal_code": 20567,
    "place_name_english": "Doragala",
    "sinhala": "දොරගල",
    "tamil": "டோரகலா",
    "latitude": 7.071,
    "longitude": 80.5867,
    "accuracy": 1.0
  },
  {
    "country_code": "LK",
    "province": "Central",
    "province_code": "LK2",
    "district": "Nuwara Eliya",
    "disid": "LK23",
    "ds_aga": null,
    "ds_code": null,
    "postal_code": 20568,
    "place_name_english": "Nayapana Janapadaya",
    "sinhala": "නයාපන ජනපදය",
    "tamil": "நயபன ஜனபாதய",
    "latitude": 7.071,
    "longitude": 80.5867,
    "accuracy": 1.0
  },
  {
    "country_code": "LK",
    "province": "Central",
    "province_code": "LK2",
    "district": "Nuwara Eliya",
    "disid": "LK23",
    "ds_aga": null,
    "ds_code": null,
    "postal_code": 20670,
    "place_name_english": "Nawathispane",
    "sinhala": "නවතිස්පනේ",
    "tamil": "நவதிஸ்பேன்",
    "latitude": 7.0359,
    "longitude": 80.5174,
    "accuracy": 1.0
  },
  {
    "country_code": "LK",
    "province": "Central",
    "province_code": "LK2",
    "district": "Nuwara Eliya",
    "disid": "LK23",
    "ds_aga": null,
    "ds_code": null,
    "postal_code": 22150,
    "place_name_english": "Nanuoya",
    "sinhala": "නානුඔය",
    "tamil": "நானோயா",
    "latitude": 6.9742,
    "longitude": 80.659,
    "accuracy": 1.0
  },
  {
    "country_code": "LK",
    "province": "Central",
    "province_code": "LK2",
    "district": "Nuwara Eliya",
    "disid": "LK23",
    "ds_aga": null,
    "ds_code": null,
    "postal_code": 22280,
    "place_name_english": "Nildandahinna",
    "sinhala": "නිල්දණ්ඩහින්න",
    "tamil": "நில்டாண்டாஹின்னா",
    "latitude": 7.0679,
    "longitude": 80.8939,
    "accuracy": 4.0
  },
  {
    "country_code": "LK",
    "province": "Central",
    "province_code": "LK2",
    "district": "Nuwara Eliya",
    "disid": "LK23",
    "ds_aga": null,
    "ds_code": null,
    "postal_code": 22075,
    "place_name_english": "Nissanka Uyana",
    "sinhala": "නිශ්ශංක උයන",
    "tamil": "நிசங்கா யுயானா",
    "latitude": 6.8343,
    "longitude": 80.5676,
    "accuracy": 1.0
  },
  {
    "country_code": "LK",
    "province": "Central",
    "province_code": "LK2",
    "district": "Nuwara Eliya",
    "disid": "LK23",
    "ds_aga": null,
    "ds_code": null,
    "postal_code": 22200,
    "place_name_english": "Nuwara Eliya",
    "sinhala": "නුවරඑලිය",
    "tamil": "நுவரா எலியா",
    "latitude": 6.9708,
    "longitude": 80.7829,
    "accuracy": 4.0
  },
  {
    "country_code": "LK",
    "province": "Central",
    "province_code": "LK2",
    "district": "Nuwara Eliya",
    "disid": "LK23",
    "ds_aga": null,
    "ds_code": null,
    "postal_code": 22058,
    "place_name_english": "Norwood",
    "sinhala": "නෝර්වුඩ්",
    "tamil": "நோர்வூட்",
    "latitude": 6.8377,
    "longitude": 80.6079,
    "accuracy": 4.0
  },
  {
    "country_code": "LK",
    "province": "Central",
    "province_code": "LK2",
    "district": "Nuwara Eliya",
    "disid": "LK23",
    "ds_aga": null,
    "ds_code": null,
    "postal_code": 22012,
    "place_name_english": "Patana",
    "sinhala": "පතන",
    "tamil": "படானா",
    "latitude": 7.5158,
    "longitude": 80.6829,
    "accuracy": 4.0
  },
  {
    "country_code": "LK",
    "province": "Central",
    "province_code": "LK2",
    "district": "Nuwara Eliya",
    "disid": "LK23",
    "ds_aga": null,
    "ds_code": null,
    "postal_code": 20750,
    "place_name_english": "Padiyapelella",
    "sinhala": "පදියපැලැල්ල",
    "tamil": "பாடியபெல்லெல்லா",
    "latitude": 7.0877,
    "longitude": 80.8044,
    "accuracy": 4.0
  },